{
"type": "FeatureCollection",
"crs": { "type": "name", "properties": { "name": "urn:ogc:def:crs:OGC:1.3:CRS84" } },
                                                                                
"features": [
{ "type": "Feature", "properties": { "id": 1.000000, "osm_id": 107775.000000, "name": "London", "type": "city", "z_order": 7.000000, "population": 8416535.000000 }, "geometry": { "type": "Point", "coordinates": [ -0.127647458102842, 51.507321846272191 ] } },
{ "type": "Feature", "properties": { "id": 2.000000, "osm_id": 13878144.000000, "name": "Catford", "type": "town", "z_order": 6.000000, "population": null }, "geometry": { "type": "Point", "coordinates": [ -0.019753421158526, 51.445321495230928 ] } },
{ "type": "Feature", "properties": { "id": 3.000000, "osm_id": 18083845.000000, "name": "Putney", "type": "town", "z_order": 6.000000, "population": null }, "geometry": { "type": "Point", "coordinates": [ -0.216746250646963, 51.462552341222789 ] } },
{ "type": "Feature", "properties": { "id": 4.000000, "osm_id": 20962674.000000, "name": "Hammersmith", "type": "town", "z_order": 6.000000, "population": null }, "geometry": { "type": "Point", "coordinates": [ -0.223640114550079, 51.492037697292368 ] } },
{ "type": "Feature", "properties": { "id": 5.000000, "osm_id": 20962675.000000, "name": "Barnes", "type": "suburb", "z_order": 3.000000, "population": null }, "geometry": { "type": "Point", "coordinates": [ -0.238744136430711, 51.471896151604483 ] } },
{ "type": "Feature", "properties": { "id": 6.000000, "osm_id": 21042294.000000, "name": "Pimlico", "type": "suburb", "z_order": 3.000000, "population": null }, "geometry": { "type": "Point", "coordinates": [ -0.139881767793923, 51.488999257391981 ] } },
{ "type": "Feature", "properties": { "id": 7.000000, "osm_id": 21090062.000000, "name": "Roehampton Gate", "type": "locality", "z_order": 1.000000, "population": null }, "geometry": { "type": "Point", "coordinates": [ -0.257179881003736, 51.453957453889643 ] } },
{ "type": "Feature", "properties": { "id": 8.000000, "osm_id": 21262497.000000, "name": "Crystal Palace", "type": "suburb", "z_order": 3.000000, "population": null }, "geometry": { "type": "Point", "coordinates": [ -0.071132811231536, 51.419366345320917 ] } },
{ "type": "Feature", "properties": { "id": 9.000000, "osm_id": 21315205.000000, "name": "Tooting Graveney", "type": "neighbourhood", "z_order": 2.000000, "population": null }, "geometry": { "type": "Point", "coordinates": [ -0.166549630930774, 51.423452187841889 ] } },
{ "type": "Feature", "properties": { "id": 10.000000, "osm_id": 21315206.000000, "name": "Wandsworth", "type": "town", "z_order": 6.000000, "population": null }, "geometry": { "type": "Point", "coordinates": [ -0.193260744688018, 51.457027074469828 ] } },
{ "type": "Feature", "properties": { "id": 11.000000, "osm_id": 21329597.000000, "name": "South Wimbledon", "type": "suburb", "z_order": 3.000000, "population": null }, "geometry": { "type": "Point", "coordinates": [ -0.199056327818312, 51.419178255413698 ] } },
{ "type": "Feature", "properties": { "id": 12.000000, "osm_id": 21521238.000000, "name": "Streatham", "type": "town", "z_order": 6.000000, "population": null }, "geometry": { "type": "Point", "coordinates": [ -0.131110525217991, 51.429768957711502 ] } },
{ "type": "Feature", "properties": { "id": 13.000000, "osm_id": 21521237.000000, "name": "Brixton", "type": "town", "z_order": 6.000000, "population": null }, "geometry": { "type": "Point", "coordinates": [ -0.116795910978283, 51.45680436730251 ] } },
{ "type": "Feature", "properties": { "id": 14.000000, "osm_id": 21662002.000000, "name": "Shepherd's Bush", "type": "town", "z_order": 6.000000, "population": 39724.000000 }, "geometry": { "type": "Point", "coordinates": [ -0.222900746871147, 51.505313961366966 ] } },
{ "type": "Feature", "properties": { "id": 15.000000, "osm_id": 26472011.000000, "name": "Hither Green", "type": "suburb", "z_order": 3.000000, "population": null }, "geometry": { "type": "Point", "coordinates": [ -0.005418355075051, 51.450298166421163 ] } },
{ "type": "Feature", "properties": { "id": 16.000000, "osm_id": 26472010.000000, "name": "Bellingham", "type": "suburb", "z_order": 3.000000, "population": null }, "geometry": { "type": "Point", "coordinates": [ -0.024514509799161, 51.431080893196224 ] } },
{ "type": "Feature", "properties": { "id": 17.000000, "osm_id": 26472013.000000, "name": "Catford South", "type": "suburb", "z_order": 3.000000, "population": null }, "geometry": { "type": "Point", "coordinates": [ -0.005978517664147, 51.440516988331865 ] } },
{ "type": "Feature", "properties": { "id": 18.000000, "osm_id": 26472012.000000, "name": "Downham", "type": "suburb", "z_order": 3.000000, "population": null }, "geometry": { "type": "Point", "coordinates": [ 0.006456538607949, 51.426110927528519 ] } },
{ "type": "Feature", "properties": { "id": 19.000000, "osm_id": 26545978.000000, "name": "Walworth", "type": "suburb", "z_order": 3.000000, "population": null }, "geometry": { "type": "Point", "coordinates": [ -0.09066038251197, 51.490114134333083 ] } },
{ "type": "Feature", "properties": { "id": 20.000000, "osm_id": 26546003.000000, "name": "Elephant and Castle", "type": "suburb", "z_order": 3.000000, "population": null }, "geometry": { "type": "Point", "coordinates": [ -0.100328740184551, 51.495279398344735 ] } },
{ "type": "Feature", "properties": { "id": 21.000000, "osm_id": 26602037.000000, "name": "Chelsea Gate", "type": "locality", "z_order": 1.000000, "population": null }, "geometry": { "type": "Point", "coordinates": [ -0.149717763529992, 51.483011728679003 ] } },
{ "type": "Feature", "properties": { "id": 22.000000, "osm_id": 26745371.000000, "name": "St Giles", "type": "suburb", "z_order": 3.000000, "population": null }, "geometry": { "type": "Point", "coordinates": [ -0.121905770609942, 51.516009772730563 ] } },
{ "type": "Feature", "properties": { "id": 23.000000, "osm_id": 26745366.000000, "name": "Mayfair", "type": "suburb", "z_order": 3.000000, "population": null }, "geometry": { "type": "Point", "coordinates": [ -0.147208305538868, 51.5110776932652 ] } },
{ "type": "Feature", "properties": { "id": 24.000000, "osm_id": 27365016.000000, "name": "Stamford Hill", "type": "suburb", "z_order": 3.000000, "population": null }, "geometry": { "type": "Point", "coordinates": [ -0.069040269104278, 51.57070915083159 ] } },
{ "type": "Feature", "properties": { "id": 25.000000, "osm_id": 27365018.000000, "name": "Stoke Newington", "type": "suburb", "z_order": 3.000000, "population": null }, "geometry": { "type": "Point", "coordinates": [ -0.077281607761563, 51.557697084345023 ] } },
{ "type": "Feature", "properties": { "id": 26.000000, "osm_id": 27365020.000000, "name": "Islington", "type": "suburb", "z_order": 3.000000, "population": null }, "geometry": { "type": "Point", "coordinates": [ -0.099905118798176, 51.538428681510709 ] } },
{ "type": "Feature", "properties": { "id": 27.000000, "osm_id": 27365017.000000, "name": "Upper Clapton", "type": "suburb", "z_order": 3.000000, "population": null }, "geometry": { "type": "Point", "coordinates": [ -0.060569769214197, 51.566838387946035 ] } },
{ "type": "Feature", "properties": { "id": 28.000000, "osm_id": 27365019.000000, "name": "Lower Clapton", "type": "suburb", "z_order": 3.000000, "population": null }, "geometry": { "type": "Point", "coordinates": [ -0.055091273480969, 51.554656465149776 ] } },
{ "type": "Feature", "properties": { "id": 29.000000, "osm_id": 27364687.000000, "name": "Crouch End", "type": "suburb", "z_order": 3.000000, "population": null }, "geometry": { "type": "Point", "coordinates": [ -0.123893958042686, 51.575998383191148 ] } },
{ "type": "Feature", "properties": { "id": 30.000000, "osm_id": 27365024.000000, "name": "Bethnal Green", "type": "suburb", "z_order": 3.000000, "population": null }, "geometry": { "type": "Point", "coordinates": [ -0.056163318896864, 51.530345593185331 ] } },
{ "type": "Feature", "properties": { "id": 31.000000, "osm_id": 27365026.000000, "name": "Haggerston", "type": "suburb", "z_order": 3.000000, "population": null }, "geometry": { "type": "Point", "coordinates": [ -0.070767444072203, 51.53209397436828 ] } },
{ "type": "Feature", "properties": { "id": 32.000000, "osm_id": 27365022.000000, "name": "Kentish Town", "type": "suburb", "z_order": 3.000000, "population": null }, "geometry": { "type": "Point", "coordinates": [ -0.142562551885902, 51.550065780600676 ] } },
{ "type": "Feature", "properties": { "id": 33.000000, "osm_id": 27365023.000000, "name": "Gospel Oak", "type": "suburb", "z_order": 3.000000, "population": null }, "geometry": { "type": "Point", "coordinates": [ -0.151752470525338, 51.553686259857443 ] } },
{ "type": "Feature", "properties": { "id": 34.000000, "osm_id": 27365030.000000, "name": "City of London", "type": "city", "z_order": 7.000000, "population": 7375.000000 }, "geometry": { "type": "Point", "coordinates": [ -0.091998301896524, 51.515617667300113 ] } },
{ "type": "Feature", "properties": { "id": 35.000000, "osm_id": 27365025.000000, "name": "Dalston", "type": "town", "z_order": 6.000000, "population": null }, "geometry": { "type": "Point", "coordinates": [ -0.067228604552355, 51.54340225139677 ] } },
{ "type": "Feature", "properties": { "id": 36.000000, "osm_id": 27365035.000000, "name": "Bermondsey", "type": "suburb", "z_order": 3.000000, "population": null }, "geometry": { "type": "Point", "coordinates": [ -0.063268071483833, 51.497012440644902 ] } },
{ "type": "Feature", "properties": { "id": 37.000000, "osm_id": 27365028.000000, "name": "Wapping", "type": "suburb", "z_order": 3.000000, "population": null }, "geometry": { "type": "Point", "coordinates": [ -0.058729103277301, 51.505436253334267 ] } },
{ "type": "Feature", "properties": { "id": 38.000000, "osm_id": 27365029.000000, "name": "Shoreditch", "type": "suburb", "z_order": 3.000000, "population": null }, "geometry": { "type": "Point", "coordinates": [ -0.079892654419154, 51.526669374272444 ] } },
{ "type": "Feature", "properties": { "id": 39.000000, "osm_id": 27365038.000000, "name": "Stepney", "type": "suburb", "z_order": 3.000000, "population": null }, "geometry": { "type": "Point", "coordinates": [ -0.046218945152759, 51.517402258304791 ] } },
{ "type": "Feature", "properties": { "id": 40.000000, "osm_id": 27365031.000000, "name": "Clerkenwell", "type": "suburb", "z_order": 3.000000, "population": null }, "geometry": { "type": "Point", "coordinates": [ -0.105555527365482, 51.52372673952533 ] } },
{ "type": "Feature", "properties": { "id": 41.000000, "osm_id": 27365036.000000, "name": "Millwall", "type": "suburb", "z_order": 3.000000, "population": null }, "geometry": { "type": "Point", "coordinates": [ -0.021218745471316, 51.493342256702306 ] } },
{ "type": "Feature", "properties": { "id": 42.000000, "osm_id": 27365037.000000, "name": "Rotherhithe", "type": "suburb", "z_order": 3.000000, "population": null }, "geometry": { "type": "Point", "coordinates": [ -0.043632122195362, 51.500290770614129 ] } },
{ "type": "Feature", "properties": { "id": 43.000000, "osm_id": 27365041.000000, "name": "Blackwall", "type": "suburb", "z_order": 3.000000, "population": null }, "geometry": { "type": "Point", "coordinates": [ -0.006402474326649, 51.50650033594215 ] } },
{ "type": "Feature", "properties": { "id": 44.000000, "osm_id": 27365033.000000, "name": "Bloomsbury", "type": "suburb", "z_order": 3.000000, "population": null }, "geometry": { "type": "Point", "coordinates": [ -0.126066463526229, 51.523125924705852 ] } },
{ "type": "Feature", "properties": { "id": 45.000000, "osm_id": 27365044.000000, "name": "Bromley-by-Bow", "type": "suburb", "z_order": 3.000000, "population": null }, "geometry": { "type": "Point", "coordinates": [ -0.017231977045867, 51.526630817517848 ] } },
{ "type": "Feature", "properties": { "id": 46.000000, "osm_id": 27365046.000000, "name": "Stratford", "type": "town", "z_order": 6.000000, "population": 98812.000000 }, "geometry": { "type": "Point", "coordinates": [ 0.001636860464146, 51.540671092066731 ] } },
{ "type": "Feature", "properties": { "id": 47.000000, "osm_id": 27365049.000000, "name": "Leytonstone", "type": "suburb", "z_order": 3.000000, "population": null }, "geometry": { "type": "Point", "coordinates": [ 0.006423681547517, 51.57107828984735 ] } },
{ "type": "Feature", "properties": { "id": 48.000000, "osm_id": 27365042.000000, "name": "Isle of Dogs", "type": "suburb", "z_order": 3.000000, "population": null }, "geometry": { "type": "Point", "coordinates": [ -0.01688546916867, 51.497844679810974 ] } },
{ "type": "Feature", "properties": { "id": 49.000000, "osm_id": 27365039.000000, "name": "Limehouse", "type": "suburb", "z_order": 3.000000, "population": null }, "geometry": { "type": "Point", "coordinates": [ -0.035149217088616, 51.513307363328408 ] } },
{ "type": "Feature", "properties": { "id": 50.000000, "osm_id": 27365040.000000, "name": "Cubitt Town", "type": "suburb", "z_order": 3.000000, "population": null }, "geometry": { "type": "Point", "coordinates": [ -0.008243307901637, 51.49366764218351 ] } },
{ "type": "Feature", "properties": { "id": 51.000000, "osm_id": 27365043.000000, "name": "Poplar", "type": "suburb", "z_order": 3.000000, "population": null }, "geometry": { "type": "Point", "coordinates": [ -0.014388332575237, 51.511181042131341 ] } },
{ "type": "Feature", "properties": { "id": 52.000000, "osm_id": 27365045.000000, "name": "Bow", "type": "suburb", "z_order": 3.000000, "population": null }, "geometry": { "type": "Point", "coordinates": [ -0.019481679857648, 51.528308455438037 ] } },
{ "type": "Feature", "properties": { "id": 53.000000, "osm_id": 27365300.000000, "name": "Barnsbury", "type": "suburb", "z_order": 3.000000, "population": null }, "geometry": { "type": "Point", "coordinates": [ -0.114735052444985, 51.538935032281415 ] } },
{ "type": "Feature", "properties": { "id": 54.000000, "osm_id": 27365298.000000, "name": "Upper Holloway", "type": "suburb", "z_order": 3.000000, "population": null }, "geometry": { "type": "Point", "coordinates": [ -0.133868339000145, 51.564489024305544 ] } },
{ "type": "Feature", "properties": { "id": 55.000000, "osm_id": 27365306.000000, "name": "City of Westminster", "type": "city", "z_order": 7.000000, "population": 233292.000000 }, "geometry": { "type": "Point", "coordinates": [ -0.137149015902253, 51.497320559405544 ] } },
{ "type": "Feature", "properties": { "id": 56.000000, "osm_id": 27365299.000000, "name": "Highbury", "type": "suburb", "z_order": 3.000000, "population": null }, "geometry": { "type": "Point", "coordinates": [ -0.102712721085169, 51.545799559523431 ] } },
{ "type": "Feature", "properties": { "id": 57.000000, "osm_id": 27365297.000000, "name": "Lower Holloway", "type": "suburb", "z_order": 3.000000, "population": null }, "geometry": { "type": "Point", "coordinates": [ -0.114880729922163, 51.55444012822889 ] } },
{ "type": "Feature", "properties": { "id": 58.000000, "osm_id": 27365302.000000, "name": "Greenwich", "type": "town", "z_order": 6.000000, "population": null }, "geometry": { "type": "Point", "coordinates": [ -0.004541775641172, 51.482084438730936 ] } },
{ "type": "Feature", "properties": { "id": 59.000000, "osm_id": 27365305.000000, "name": "Lewisham", "type": "town", "z_order": 6.000000, "population": 96224.000000 }, "geometry": { "type": "Point", "coordinates": [ -0.01013317561015, 51.462432480007408 ] } },
{ "type": "Feature", "properties": { "id": 60.000000, "osm_id": 27467065.000000, "name": "Fitzrovia", "type": "suburb", "z_order": 3.000000, "population": null }, "geometry": { "type": "Point", "coordinates": [ -0.14100175769596, 51.518764149932423 ] } },
{ "type": "Feature", "properties": { "id": 61.000000, "osm_id": 27365501.000000, "name": "Willesden", "type": "suburb", "z_order": 3.000000, "population": null }, "geometry": { "type": "Point", "coordinates": [ -0.235866126157049, 51.546621572767663 ] } },
{ "type": "Feature", "properties": { "id": 62.000000, "osm_id": 27467064.000000, "name": "Whitehall", "type": "locality", "z_order": 1.000000, "population": null }, "geometry": { "type": "Point", "coordinates": [ -0.126082640599378, 51.502327740723359 ] } },
{ "type": "Feature", "properties": { "id": 63.000000, "osm_id": 27396436.000000, "name": "South Kensington", "type": "suburb", "z_order": 3.000000, "population": null }, "geometry": { "type": "Point", "coordinates": [ -0.183136830577951, 51.495581649773186 ] } },
{ "type": "Feature", "properties": { "id": 64.000000, "osm_id": 27396490.000000, "name": "Knightsbridge", "type": "suburb", "z_order": 3.000000, "population": null }, "geometry": { "type": "Point", "coordinates": [ -0.166965038052069, 51.500844395318722 ] } },
{ "type": "Feature", "properties": { "id": 65.000000, "osm_id": 27467185.000000, "name": "Maida Vale", "type": "suburb", "z_order": 3.000000, "population": null }, "geometry": { "type": "Point", "coordinates": [ -0.19059161144142, 51.527591970354763 ] } },
{ "type": "Feature", "properties": { "id": 66.000000, "osm_id": 27481929.000000, "name": "Homerton", "type": "suburb", "z_order": 3.000000, "population": null }, "geometry": { "type": "Point", "coordinates": [ -0.039962944081168, 51.550468531048182 ] } },
{ "type": "Feature", "properties": { "id": 67.000000, "osm_id": 27467066.000000, "name": "Marylebone", "type": "suburb", "z_order": 3.000000, "population": null }, "geometry": { "type": "Point", "coordinates": [ -0.150455371009258, 51.52205882461282 ] } },
{ "type": "Feature", "properties": { "id": 68.000000, "osm_id": 27481928.000000, "name": "De Beauvoir Town", "type": "suburb", "z_order": 3.000000, "population": null }, "geometry": { "type": "Point", "coordinates": [ -0.085001172946306, 51.539928958359717 ] } },
{ "type": "Feature", "properties": { "id": 69.000000, "osm_id": 27486122.000000, "name": "West Ham", "type": "suburb", "z_order": 3.000000, "population": null }, "geometry": { "type": "Point", "coordinates": [ 0.007791189050266, 51.534324650259862 ] } },
{ "type": "Feature", "properties": { "id": 70.000000, "osm_id": 27467182.000000, "name": "Kensington", "type": "town", "z_order": 6.000000, "population": 64681.000000 }, "geometry": { "type": "Point", "coordinates": [ -0.199122963948525, 51.498994760745433 ] } },
{ "type": "Feature", "properties": { "id": 71.000000, "osm_id": 27467184.000000, "name": "Paddington", "type": "suburb", "z_order": 3.000000, "population": null }, "geometry": { "type": "Point", "coordinates": [ -0.17924234690642, 51.51630464808423 ] } },
{ "type": "Feature", "properties": { "id": 72.000000, "osm_id": 27467067.000000, "name": "Chelsea", "type": "suburb", "z_order": 3.000000, "population": null }, "geometry": { "type": "Point", "coordinates": [ -0.168220563328418, 51.487541644430109 ] } },
{ "type": "Feature", "properties": { "id": 73.000000, "osm_id": 27486121.000000, "name": "Canning Town", "type": "suburb", "z_order": 3.000000, "population": null }, "geometry": { "type": "Point", "coordinates": [ 0.013497588730814, 51.518174063949004 ] } },
{ "type": "Feature", "properties": { "id": 74.000000, "osm_id": 27529126.000000, "name": "Harringay", "type": "suburb", "z_order": 3.000000, "population": null }, "geometry": { "type": "Point", "coordinates": [ -0.099995056619207, 51.581088293893281 ] } },
{ "type": "Feature", "properties": { "id": 75.000000, "osm_id": 196694.000000, "name": "Temple Fortune", "type": "suburb", "z_order": 3.000000, "population": null }, "geometry": { "type": "Point", "coordinates": [ -0.19905381324736, 51.58191257025134 ] } },
{ "type": "Feature", "properties": { "id": 76.000000, "osm_id": 28296776.000000, "name": "Penge", "type": "suburb", "z_order": 3.000000, "population": null }, "geometry": { "type": "Point", "coordinates": [ -0.053421346911705, 51.414684046570123 ] } },
{ "type": "Feature", "properties": { "id": 77.000000, "osm_id": 27553615.000000, "name": "Plaistow", "type": "suburb", "z_order": 3.000000, "population": null }, "geometry": { "type": "Point", "coordinates": [ 0.024909633720569, 51.529379746482647 ] } },
{ "type": "Feature", "properties": { "id": 78.000000, "osm_id": 27553702.000000, "name": "Kennington", "type": "suburb", "z_order": 3.000000, "population": null }, "geometry": { "type": "Point", "coordinates": [ -0.111681860395009, 51.482437735949702 ] } },
{ "type": "Feature", "properties": { "id": 79.000000, "osm_id": 27553707.000000, "name": "Vauxhall", "type": "suburb", "z_order": 3.000000, "population": null }, "geometry": { "type": "Point", "coordinates": [ -0.122929703901605, 51.487483390203067 ] } },
{ "type": "Feature", "properties": { "id": 80.000000, "osm_id": 27553712.000000, "name": "Southwark", "type": "suburb", "z_order": 3.000000, "population": null }, "geometry": { "type": "Point", "coordinates": [ -0.103458039915353, 51.50292218529642 ] } },
{ "type": "Feature", "properties": { "id": 81.000000, "osm_id": 27553719.000000, "name": "Lambeth", "type": "suburb", "z_order": 3.000000, "population": null }, "geometry": { "type": "Point", "coordinates": [ -0.117287006685217, 51.501301125222646 ] } },
{ "type": "Feature", "properties": { "id": 82.000000, "osm_id": 27553725.000000, "name": "Stockwell", "type": "suburb", "z_order": 3.000000, "population": null }, "geometry": { "type": "Point", "coordinates": [ -0.120915364930966, 51.467272526175918 ] } },
{ "type": "Feature", "properties": { "id": 83.000000, "osm_id": 27554063.000000, "name": "New Cross Gate", "type": "suburb", "z_order": 3.000000, "population": null }, "geometry": { "type": "Point", "coordinates": [ -0.045284027672807, 51.47469771892122 ] } },
{ "type": "Feature", "properties": { "id": 84.000000, "osm_id": 27554266.000000, "name": "Battersea", "type": "suburb", "z_order": 3.000000, "population": null }, "geometry": { "type": "Point", "coordinates": [ -0.172214037276404, 51.470793260784916 ] } },
{ "type": "Feature", "properties": { "id": 85.000000, "osm_id": 27553749.000000, "name": "Dulwich", "type": "suburb", "z_order": 3.000000, "population": null }, "geometry": { "type": "Point", "coordinates": [ -0.084324418084066, 51.441878544683362 ] } },
{ "type": "Feature", "properties": { "id": 86.000000, "osm_id": 27553768.000000, "name": "Forest Hill", "type": "suburb", "z_order": 3.000000, "population": null }, "geometry": { "type": "Point", "coordinates": [ -0.053953849220335, 51.439107990408417 ] } },
{ "type": "Feature", "properties": { "id": 87.000000, "osm_id": 27554058.000000, "name": "Deptford", "type": "suburb", "z_order": 3.000000, "population": null }, "geometry": { "type": "Point", "coordinates": [ -0.021516470672054, 51.475845285284691 ] } },
{ "type": "Feature", "properties": { "id": 88.000000, "osm_id": 27554267.000000, "name": "Clapham", "type": "town", "z_order": 6.000000, "population": null }, "geometry": { "type": "Point", "coordinates": [ -0.138856158121598, 51.462292334586344 ] } },
{ "type": "Feature", "properties": { "id": 89.000000, "osm_id": 27553734.000000, "name": "Camberwell", "type": "suburb", "z_order": 3.000000, "population": null }, "geometry": { "type": "Point", "coordinates": [ -0.092541616860245, 51.474570565450072 ] } },
{ "type": "Feature", "properties": { "id": 90.000000, "osm_id": 27553742.000000, "name": "East Dulwich", "type": "suburb", "z_order": 3.000000, "population": null }, "geometry": { "type": "Point", "coordinates": [ -0.072732245995098, 51.458555095418376 ] } },
{ "type": "Feature", "properties": { "id": 91.000000, "osm_id": 29402049.000000, "name": "Tulse Hill", "type": "suburb", "z_order": 3.000000, "population": null }, "geometry": { "type": "Point", "coordinates": [ -0.102059100275682, 51.441210842276568 ] } },
{ "type": "Feature", "properties": { "id": 92.000000, "osm_id": 29402048.000000, "name": "Herne Hill", "type": "suburb", "z_order": 3.000000, "population": null }, "geometry": { "type": "Point", "coordinates": [ -0.100100249504038, 51.455440631656181 ] } },
{ "type": "Feature", "properties": { "id": 93.000000, "osm_id": 30478533.000000, "name": "Robin Hood Gate", "type": "locality", "z_order": 1.000000, "population": null }, "geometry": { "type": "Point", "coordinates": [ -0.256322160851994, 51.436348835521756 ] } },
{ "type": "Feature", "properties": { "id": 94.000000, "osm_id": 31922291.000000, "name": "Streatham Hill", "type": "suburb", "z_order": 3.000000, "population": null }, "geometry": { "type": "Point", "coordinates": [ -0.122289158861093, 51.44545015744464 ] } },
{ "type": "Feature", "properties": { "id": 95.000000, "osm_id": 33499702.000000, "name": "Brownswood Park", "type": "suburb", "z_order": 3.000000, "population": null }, "geometry": { "type": "Point", "coordinates": [ -0.097261969451438, 51.564780463078876 ] } },
{ "type": "Feature", "properties": { "id": 96.000000, "osm_id": 36143216.000000, "name": "East Dulwich Estate", "type": "locality", "z_order": 1.000000, "population": null }, "geometry": { "type": "Point", "coordinates": [ -0.081027983203995, 51.463998973891506 ] } },
{ "type": "Feature", "properties": { "id": 97.000000, "osm_id": 64653632.000000, "name": "Sydenham", "type": "town", "z_order": 6.000000, "population": null }, "geometry": { "type": "Point", "coordinates": [ -0.052387774431395, 51.426765721804422 ] } },
{ "type": "Feature", "properties": { "id": 98.000000, "osm_id": 207141595.000000, "name": "Peckham", "type": "suburb", "z_order": 3.000000, "population": 71552.000000 }, "geometry": { "type": "Point", "coordinates": [ -0.069932103601928, 51.473412186431489 ] } },
{ "type": "Feature", "properties": { "id": 99.000000, "osm_id": 243814259.000000, "name": "Hoxton", "type": "suburb", "z_order": 3.000000, "population": null }, "geometry": { "type": "Point", "coordinates": [ -0.086078079866041, 51.532393459768677 ] } },
{ "type": "Feature", "properties": { "id": 100.000000, "osm_id": 281041529.000000, "name": "Somers Town", "type": "suburb", "z_order": 3.000000, "population": null }, "geometry": { "type": "Point", "coordinates": [ -0.137441125227866, 51.531303057984836 ] } },
{ "type": "Feature", "properties": { "id": 101.000000, "osm_id": 288848078.000000, "name": "Butler's Wharf", "type": "hamlet", "z_order": 4.000000, "population": null }, "geometry": { "type": "Point", "coordinates": [ -0.07390923283873, 51.50369139255065 ] } },
{ "type": "Feature", "properties": { "id": 102.000000, "osm_id": 320334107.000000, "name": "Trowbridge Estate", "type": "locality", "z_order": 1.000000, "population": null }, "geometry": { "type": "Point", "coordinates": [ -0.028624576020292, 51.545622282271324 ] } },
{ "type": "Feature", "properties": { "id": 103.000000, "osm_id": 344093927.000000, "name": "Seven Dials", "type": "locality", "z_order": 1.000000, "population": null }, "geometry": { "type": "Point", "coordinates": [ -0.126988808151452, 51.513762081575543 ] } },
{ "type": "Feature", "properties": { "id": 104.000000, "osm_id": 368369201.000000, "name": "Whites Grounds Estate", "type": "locality", "z_order": 1.000000, "population": null }, "geometry": { "type": "Point", "coordinates": [ -0.080697065666698, 51.501529951179293 ] } },
{ "type": "Feature", "properties": { "id": 105.000000, "osm_id": 383729579.000000, "name": "Saint Luke's", "type": "suburb", "z_order": 3.000000, "population": null }, "geometry": { "type": "Point", "coordinates": [ -0.095900580737975, 51.526867019549286 ] } },
{ "type": "Feature", "properties": { "id": 106.000000, "osm_id": 385147398.000000, "name": "Roehampton", "type": "suburb", "z_order": 3.000000, "population": null }, "geometry": { "type": "Point", "coordinates": [ -0.241267256923976, 51.449877227243803 ] } },
{ "type": "Feature", "properties": { "id": 107.000000, "osm_id": 390315780.000000, "name": "Southfields", "type": "suburb", "z_order": 3.000000, "population": null }, "geometry": { "type": "Point", "coordinates": [ -0.206471378460748, 51.444761751736991 ] } },
{ "type": "Feature", "properties": { "id": 108.000000, "osm_id": 399607277.000000, "name": "Camden Town", "type": "town", "z_order": 6.000000, "population": 24538.000000 }, "geometry": { "type": "Point", "coordinates": [ -0.139560405626241, 51.542304473538138 ] } },
{ "type": "Feature", "properties": { "id": 109.000000, "osm_id": 400704579.000000, "name": "White City Estate", "type": "locality", "z_order": 1.000000, "population": null }, "geometry": { "type": "Point", "coordinates": [ -0.232571702933711, 51.512564391431084 ] } },
{ "type": "Feature", "properties": { "id": 110.000000, "osm_id": 402396349.000000, "name": "Wormholt Estate", "type": "locality", "z_order": 1.000000, "population": null }, "geometry": { "type": "Point", "coordinates": [ -0.240433760472428, 51.510887088787058 ] } },
{ "type": "Feature", "properties": { "id": 111.000000, "osm_id": 409700968.000000, "name": "Nunhead", "type": "suburb", "z_order": 3.000000, "population": null }, "geometry": { "type": "Point", "coordinates": [ -0.053505668857639, 51.461530838683011 ] } },
{ "type": "Feature", "properties": { "id": 112.000000, "osm_id": 415288166.000000, "name": "Calvert Court", "type": "locality", "z_order": 1.000000, "population": null }, "geometry": { "type": "Point", "coordinates": [ -0.138359362720507, 51.567560991818624 ] } },
{ "type": "Feature", "properties": { "id": 113.000000, "osm_id": 415288159.000000, "name": "The Archway Campus", "type": "locality", "z_order": 1.000000, "population": null }, "geometry": { "type": "Point", "coordinates": [ -0.136510482518503, 51.566834448451544 ] } },
{ "type": "Feature", "properties": { "id": 114.000000, "osm_id": 415560848.000000, "name": "Lockyer Estate", "type": "locality", "z_order": 1.000000, "population": null }, "geometry": { "type": "Point", "coordinates": [ -0.087034203561046, 51.500843724766462 ] } },
{ "type": "Feature", "properties": { "id": 115.000000, "osm_id": 415561032.000000, "name": "St Olave's Estate", "type": "locality", "z_order": 1.000000, "population": null }, "geometry": { "type": "Point", "coordinates": [ -0.079498118236756, 51.502583640227243 ] } },
{ "type": "Feature", "properties": { "id": 116.000000, "osm_id": 417082231.000000, "name": "Bells Gardens Estate", "type": "neighbourhood", "z_order": 2.000000, "population": null }, "geometry": { "type": "Point", "coordinates": [ -0.068141309988903, 51.476151476207633 ] } },
{ "type": "Feature", "properties": { "id": 117.000000, "osm_id": 423749783.000000, "name": "Wimbledon", "type": "town", "z_order": 6.000000, "population": 58449.000000 }, "geometry": { "type": "Point", "coordinates": [ -0.217449240866131, 51.425386228180145 ] } },
{ "type": "Feature", "properties": { "id": 118.000000, "osm_id": 431507207.000000, "name": "Blackheath", "type": "suburb", "z_order": 3.000000, "population": null }, "geometry": { "type": "Point", "coordinates": [ 0.008539273908497, 51.466349175722314 ] } },
{ "type": "Feature", "properties": { "id": 119.000000, "osm_id": 432444944.000000, "name": "Purbrook Estate", "type": "locality", "z_order": 1.000000, "population": null }, "geometry": { "type": "Point", "coordinates": [ -0.078258937671592, 51.49886408687496 ] } },
{ "type": "Feature", "properties": { "id": 120.000000, "osm_id": 434342977.000000, "name": "Ferdinand Estate", "type": "locality", "z_order": 1.000000, "population": null }, "geometry": { "type": "Point", "coordinates": [ -0.148728447498399, 51.543899549712052 ] } },
{ "type": "Feature", "properties": { "id": 121.000000, "osm_id": 434376926.000000, "name": "Regent's Park Estate", "type": "locality", "z_order": 1.000000, "population": null }, "geometry": { "type": "Point", "coordinates": [ -0.143887060225381, 51.526961818874184 ] } },
{ "type": "Feature", "properties": { "id": 122.000000, "osm_id": 434421316.000000, "name": "Locton Estate", "type": "locality", "z_order": 1.000000, "population": null }, "geometry": { "type": "Point", "coordinates": [ -0.027447672995692, 51.537675986605734 ] } },
{ "type": "Feature", "properties": { "id": 123.000000, "osm_id": 447843121.000000, "name": "Cricklewood", "type": "suburb", "z_order": 3.000000, "population": null }, "geometry": { "type": "Point", "coordinates": [ -0.215750732007052, 51.556698548219941 ] } },
{ "type": "Feature", "properties": { "id": 124.000000, "osm_id": 447919697.000000, "name": "Trelawney Estate", "type": "locality", "z_order": 1.000000, "population": null }, "geometry": { "type": "Point", "coordinates": [ -0.053721502864363, 51.545742478762826 ] } },
{ "type": "Feature", "properties": { "id": 125.000000, "osm_id": 450524790.000000, "name": "South Bank", "type": "suburb", "z_order": 3.000000, "population": null }, "geometry": { "type": "Point", "coordinates": [ -0.109680848650413, 51.508034643318069 ] } },
{ "type": "Feature", "properties": { "id": 126.000000, "osm_id": 451698386.000000, "name": "Harold Estate", "type": "locality", "z_order": 1.000000, "population": null }, "geometry": { "type": "Point", "coordinates": [ -0.081182377860443, 51.494569367326903 ] } },
{ "type": "Feature", "properties": { "id": 127.000000, "osm_id": 475413188.000000, "name": "Tavener Estate", "type": "locality", "z_order": 1.000000, "population": null }, "geometry": { "type": "Point", "coordinates": [ -0.097509235595055, 51.554435937277297 ] } },
{ "type": "Feature", "properties": { "id": 128.000000, "osm_id": 485354256.000000, "name": "Bentham Court", "type": "locality", "z_order": 1.000000, "population": null }, "geometry": { "type": "Point", "coordinates": [ -0.094149182069884, 51.540504962745814 ] } },
{ "type": "Feature", "properties": { "id": 129.000000, "osm_id": 503721811.000000, "name": "Shaw Court", "type": "locality", "z_order": 1.000000, "population": null }, "geometry": { "type": "Point", "coordinates": [ -0.121148214201128, 51.562355243214654 ] } },
{ "type": "Feature", "properties": { "id": 130.000000, "osm_id": 560720547.000000, "name": "Lockner Estate", "type": "locality", "z_order": 1.000000, "population": null }, "geometry": { "type": "Point", "coordinates": [ -0.077310525327505, 51.541590586844848 ] } },
{ "type": "Feature", "properties": { "id": 131.000000, "osm_id": 559739378.000000, "name": "Fish Island", "type": "locality", "z_order": 1.000000, "population": null }, "geometry": { "type": "Point", "coordinates": [ -0.022905352027891, 51.539449094403039 ] } },
{ "type": "Feature", "properties": { "id": 132.000000, "osm_id": 565457860.000000, "name": "Borough", "type": "suburb", "z_order": 3.000000, "population": null }, "geometry": { "type": "Point", "coordinates": [ -0.093802003640434, 51.502270324686606 ] } },
{ "type": "Feature", "properties": { "id": 133.000000, "osm_id": 568590491.000000, "name": "Ladywell", "type": "suburb", "z_order": 3.000000, "population": null }, "geometry": { "type": "Point", "coordinates": [ -0.020323977307555, 51.456587695105469 ] } },
{ "type": "Feature", "properties": { "id": 134.000000, "osm_id": 568572880.000000, "name": "Brockley", "type": "suburb", "z_order": 3.000000, "population": null }, "geometry": { "type": "Point", "coordinates": [ -0.036086816777583, 51.457832743002882 ] } },
{ "type": "Feature", "properties": { "id": 135.000000, "osm_id": 568590483.000000, "name": "Honor Oak", "type": "suburb", "z_order": 3.000000, "population": null }, "geometry": { "type": "Point", "coordinates": [ -0.039914245223713, 51.449907485914245 ] } },
{ "type": "Feature", "properties": { "id": 136.000000, "osm_id": 573326024.000000, "name": "Fenwick Estate", "type": "locality", "z_order": 1.000000, "population": null }, "geometry": { "type": "Point", "coordinates": [ -0.126581280019167, 51.465147378445288 ] } },
{ "type": "Feature", "properties": { "id": 137.000000, "osm_id": 610844777.000000, "name": "Pelican Estate", "type": "locality", "z_order": 1.000000, "population": null }, "geometry": { "type": "Point", "coordinates": [ -0.076824542581505, 51.473058218660469 ] } },
{ "type": "Feature", "properties": { "id": 138.000000, "osm_id": 610844756.000000, "name": "Lettsom Estate", "type": "locality", "z_order": 1.000000, "population": null }, "geometry": { "type": "Point", "coordinates": [ -0.083783617691324, 51.470223291369109 ] } },
{ "type": "Feature", "properties": { "id": 139.000000, "osm_id": 610857914.000000, "name": "Southampton Way Estate", "type": "locality", "z_order": 1.000000, "population": null }, "geometry": { "type": "Point", "coordinates": [ -0.078735029771849, 51.476721445623411 ] } },
{ "type": "Feature", "properties": { "id": 140.000000, "osm_id": 610875919.000000, "name": "Elmington Estate", "type": "locality", "z_order": 1.000000, "population": null }, "geometry": { "type": "Point", "coordinates": [ -0.093247121650336, 51.477505069751118 ] } },
{ "type": "Feature", "properties": { "id": 141.000000, "osm_id": 610864376.000000, "name": "Sceaux Gardens Estate", "type": "locality", "z_order": 1.000000, "population": null }, "geometry": { "type": "Point", "coordinates": [ -0.08091524660631, 51.474897375854795 ] } },
{ "type": "Feature", "properties": { "id": 142.000000, "osm_id": 610844778.000000, "name": "Clifton Estate", "type": "locality", "z_order": 1.000000, "population": null }, "geometry": { "type": "Point", "coordinates": [ -0.064817047190303, 51.472937435435739 ] } },
{ "type": "Feature", "properties": { "id": 143.000000, "osm_id": 610844779.000000, "name": "Cossall Estate", "type": "locality", "z_order": 1.000000, "population": null }, "geometry": { "type": "Point", "coordinates": [ -0.061100678961225, 51.472253723593859 ] } },
{ "type": "Feature", "properties": { "id": 144.000000, "osm_id": 611721875.000000, "name": "Aylesbury Estate", "type": "locality", "z_order": 1.000000, "population": null }, "geometry": { "type": "Point", "coordinates": [ -0.08607900187539, 51.485327648525868 ] } },
{ "type": "Feature", "properties": { "id": 145.000000, "osm_id": 613530766.000000, "name": "Brayards Estate", "type": "locality", "z_order": 1.000000, "population": null }, "geometry": { "type": "Point", "coordinates": [ -0.058055030624104, 51.470243827031901 ] } },
{ "type": "Feature", "properties": { "id": 146.000000, "osm_id": 615628129.000000, "name": "Sun Gate", "type": "locality", "z_order": 1.000000, "population": null }, "geometry": { "type": "Point", "coordinates": [ -0.163288567682088, 51.474970968964669 ] } },
{ "type": "Feature", "properties": { "id": 147.000000, "osm_id": 616600058.000000, "name": "Cooper's Estate", "type": "locality", "z_order": 1.000000, "population": null }, "geometry": { "type": "Point", "coordinates": [ -0.071883662117813, 51.487294797381651 ] } },
{ "type": "Feature", "properties": { "id": 148.000000, "osm_id": 622379708.000000, "name": "Lanfranc Estate", "type": "locality", "z_order": 1.000000, "population": null }, "geometry": { "type": "Point", "coordinates": [ -0.037853973423665, 51.528795779288544 ] } },
{ "type": "Feature", "properties": { "id": 149.000000, "osm_id": 626591740.000000, "name": "Balham", "type": "suburb", "z_order": 3.000000, "population": null }, "geometry": { "type": "Point", "coordinates": [ -0.150364343540787, 51.445644869055364 ] } },
{ "type": "Feature", "properties": { "id": 150.000000, "osm_id": 650932560.000000, "name": "Albert Gate", "type": "locality", "z_order": 1.000000, "population": null }, "geometry": { "type": "Point", "coordinates": [ -0.165278012400336, 51.479590571079711 ] } },
{ "type": "Feature", "properties": { "id": 151.000000, "osm_id": 653926374.000000, "name": "Park Lea Court", "type": "locality", "z_order": 1.000000, "population": null }, "geometry": { "type": "Point", "coordinates": [ -0.078555908501045, 51.574467093300399 ] } },
{ "type": "Feature", "properties": { "id": 152.000000, "osm_id": 667181391.000000, "name": "Drakes Court", "type": "locality", "z_order": 1.000000, "population": null }, "geometry": { "type": "Point", "coordinates": [ -0.051767848872657, 51.44329978018547 ] } },
{ "type": "Feature", "properties": { "id": 153.000000, "osm_id": 667181396.000000, "name": "Dunoon Gardens", "type": "locality", "z_order": 1.000000, "population": null }, "geometry": { "type": "Point", "coordinates": [ -0.049824672259945, 51.446537877019466 ] } },
{ "type": "Feature", "properties": { "id": 154.000000, "osm_id": 667181390.000000, "name": "Leyton Court", "type": "locality", "z_order": 1.000000, "population": null }, "geometry": { "type": "Point", "coordinates": [ -0.053400643610871, 51.44104437767956 ] } },
{ "type": "Feature", "properties": { "id": 155.000000, "osm_id": 667181395.000000, "name": "Lynfield Court", "type": "locality", "z_order": 1.000000, "population": null }, "geometry": { "type": "Point", "coordinates": [ -0.050562615015338, 51.446018785755939 ] } },
{ "type": "Feature", "properties": { "id": 156.000000, "osm_id": 669880032.000000, "name": "Austin Terrace", "type": "locality", "z_order": 1.000000, "population": null }, "geometry": { "type": "Point", "coordinates": [ -0.109228644974195, 51.499144377717073 ] } },
{ "type": "Feature", "properties": { "id": 157.000000, "osm_id": 671697122.000000, "name": "Grange Court", "type": "locality", "z_order": 1.000000, "population": null }, "geometry": { "type": "Point", "coordinates": [ -0.011977613403502, 51.56422189305141 ] } },
{ "type": "Feature", "properties": { "id": 158.000000, "osm_id": 671697148.000000, "name": "Manor Court", "type": "locality", "z_order": 1.000000, "population": null }, "geometry": { "type": "Point", "coordinates": [ -0.015015969484864, 51.566283170679839 ] } },
{ "type": "Feature", "properties": { "id": 159.000000, "osm_id": 671697347.000000, "name": "Elmwood Court", "type": "locality", "z_order": 1.000000, "population": null }, "geometry": { "type": "Point", "coordinates": [ -0.018180473208986, 51.566752221981432 ] } },
{ "type": "Feature", "properties": { "id": 160.000000, "osm_id": 671697509.000000, "name": "Bell Gardens", "type": "locality", "z_order": 1.000000, "population": null }, "geometry": { "type": "Point", "coordinates": [ -0.022327755080198, 51.567622682625995 ] } },
{ "type": "Feature", "properties": { "id": 161.000000, "osm_id": 671728501.000000, "name": "Argall Avenue Industrial Estate", "type": "locality", "z_order": 1.000000, "population": null }, "geometry": { "type": "Point", "coordinates": [ -0.037878951495117, 51.57196216153698 ] } },
{ "type": "Feature", "properties": { "id": 162.000000, "osm_id": 671741800.000000, "name": "Leyton Industrial Village", "type": "locality", "z_order": 1.000000, "population": null }, "geometry": { "type": "Point", "coordinates": [ -0.043710073894886, 51.571010731707759 ] } },
{ "type": "Feature", "properties": { "id": 163.000000, "osm_id": 671907712.000000, "name": "Laurel Court", "type": "locality", "z_order": 1.000000, "population": null }, "geometry": { "type": "Point", "coordinates": [ -0.050741820105202, 51.565859968388587 ] } },
{ "type": "Feature", "properties": { "id": 164.000000, "osm_id": 671907713.000000, "name": "Whitebeam Court", "type": "locality", "z_order": 1.000000, "population": null }, "geometry": { "type": "Point", "coordinates": [ -0.050106723301752, 51.565453194627587 ] } },
{ "type": "Feature", "properties": { "id": 165.000000, "osm_id": 695096920.000000, "name": "Edward Square", "type": "locality", "z_order": 1.000000, "population": null }, "geometry": { "type": "Point", "coordinates": [ -0.117817916432216, 51.536163555997092 ] } },
{ "type": "Feature", "properties": { "id": 166.000000, "osm_id": 709103709.000000, "name": "Collection Place", "type": "locality", "z_order": 1.000000, "population": null }, "geometry": { "type": "Point", "coordinates": [ -0.185092663864452, 51.537885534185051 ] } },
{ "type": "Feature", "properties": { "id": 167.000000, "osm_id": 716816528.000000, "name": "Westbourne Green", "type": "suburb", "z_order": 3.000000, "population": null }, "geometry": { "type": "Point", "coordinates": [ -0.190597311135576, 51.518735232366474 ] } },
{ "type": "Feature", "properties": { "id": 168.000000, "osm_id": 727604736.000000, "name": "Holly Park Estate", "type": "locality", "z_order": 1.000000, "population": null }, "geometry": { "type": "Point", "coordinates": [ -0.117520777964728, 51.572778391268031 ] } },
{ "type": "Feature", "properties": { "id": 169.000000, "osm_id": 730930664.000000, "name": "Fellows Road Estate", "type": "locality", "z_order": 1.000000, "population": null }, "geometry": { "type": "Point", "coordinates": [ -0.161512442399612, 51.544196185265378 ] } },
{ "type": "Feature", "properties": { "id": 170.000000, "osm_id": 737733249.000000, "name": "Nailour Estate", "type": "locality", "z_order": 1.000000, "population": null }, "geometry": { "type": "Point", "coordinates": [ -0.119669478843235, 51.544270784203597 ] } },
{ "type": "Feature", "properties": { "id": 171.000000, "osm_id": 771206065.000000, "name": "Armitage Mansions", "type": "locality", "z_order": 1.000000, "population": null }, "geometry": { "type": "Point", "coordinates": [ -0.199328404395317, 51.572714437346804 ] } },
{ "type": "Feature", "properties": { "id": 172.000000, "osm_id": 791443844.000000, "name": "Sun In The Sands Roundabout", "type": "locality", "z_order": 1.000000, "population": null }, "geometry": { "type": "Point", "coordinates": [ 0.024532364258732, 51.474813221546952 ] } },
{ "type": "Feature", "properties": { "id": 173.000000, "osm_id": 797079478.000000, "name": "Oliver Goldsmith Estate", "type": "locality", "z_order": 1.000000, "population": null }, "geometry": { "type": "Point", "coordinates": [ -0.067318626192417, 51.474537037837365 ] } },
{ "type": "Feature", "properties": { "id": 174.000000, "osm_id": 812151215.000000, "name": "Grange Court", "type": "locality", "z_order": 1.000000, "population": null }, "geometry": { "type": "Point", "coordinates": [ -0.251233004521168, 51.55970203558411 ] } },
{ "type": "Feature", "properties": { "id": 175.000000, "osm_id": 812151175.000000, "name": "North Circular Business Park", "type": "locality", "z_order": 1.000000, "population": null }, "geometry": { "type": "Point", "coordinates": [ -0.252924556400615, 51.553115116975221 ] } },
{ "type": "Feature", "properties": { "id": 176.000000, "osm_id": 812151463.000000, "name": "Hazelwood Court", "type": "locality", "z_order": 1.000000, "population": null }, "geometry": { "type": "Point", "coordinates": [ -0.25499203663739, 51.561010283031436 ] } },
{ "type": "Feature", "properties": { "id": 177.000000, "osm_id": 818628859.000000, "name": "Harp Business Centre", "type": "locality", "z_order": 1.000000, "population": null }, "geometry": { "type": "Point", "coordinates": [ -0.238891406469463, 51.568424244026488 ] } },
{ "type": "Feature", "properties": { "id": 178.000000, "osm_id": 818628534.000000, "name": "Staples Corner", "type": "locality", "z_order": 1.000000, "population": null }, "geometry": { "type": "Point", "coordinates": [ -0.22875500332367, 51.572643358807909 ] } },
{ "type": "Feature", "properties": { "id": 179.000000, "osm_id": 849946938.000000, "name": "Tachbrook Estate", "type": "locality", "z_order": 1.000000, "population": null }, "geometry": { "type": "Point", "coordinates": [ -0.13308580451988, 51.487387836506883 ] } },
{ "type": "Feature", "properties": { "id": 180.000000, "osm_id": 867071978.000000, "name": "Old Manor Court", "type": "locality", "z_order": 1.000000, "population": null }, "geometry": { "type": "Point", "coordinates": [ -0.181176806339835, 51.535666425319874 ] } },
{ "type": "Feature", "properties": { "id": 181.000000, "osm_id": 868622170.000000, "name": "Alexandra Road Estate", "type": "locality", "z_order": 1.000000, "population": null }, "geometry": { "type": "Point", "coordinates": [ -0.184558736632283, 51.539231919291829 ] } },
{ "type": "Feature", "properties": { "id": 182.000000, "osm_id": 873555464.000000, "name": "Ledbury Estate", "type": "locality", "z_order": 1.000000, "population": null }, "geometry": { "type": "Point", "coordinates": [ -0.06355883970491, 51.479190670479312 ] } },
{ "type": "Feature", "properties": { "id": 183.000000, "osm_id": 868292945.000000, "name": "West End Sidings Estate", "type": "locality", "z_order": 1.000000, "population": null }, "geometry": { "type": "Point", "coordinates": [ -0.200640172241975, 51.548915196752063 ] } },
{ "type": "Feature", "properties": { "id": 184.000000, "osm_id": 896149790.000000, "name": "Sapcote Trading Centre", "type": "locality", "z_order": 1.000000, "population": null }, "geometry": { "type": "Point", "coordinates": [ -0.241542518624215, 51.550378257950996 ] } },
{ "type": "Feature", "properties": { "id": 185.000000, "osm_id": 899414428.000000, "name": "Larch Court", "type": "locality", "z_order": 1.000000, "population": null }, "geometry": { "type": "Point", "coordinates": [ -0.195798868787989, 51.522070140182109 ] } },
{ "type": "Feature", "properties": { "id": 186.000000, "osm_id": 899414444.000000, "name": "Nuffield Lodge", "type": "locality", "z_order": 1.000000, "population": null }, "geometry": { "type": "Point", "coordinates": [ -0.194571003792078, 51.522028230666244 ] } },
{ "type": "Feature", "properties": { "id": 187.000000, "osm_id": 899414430.000000, "name": "Livingstone Lodge", "type": "locality", "z_order": 1.000000, "population": null }, "geometry": { "type": "Point", "coordinates": [ -0.195330739495745, 51.521857658936682 ] } },
{ "type": "Feature", "properties": { "id": 188.000000, "osm_id": 899414421.000000, "name": "Elm Court", "type": "locality", "z_order": 1.000000, "population": null }, "geometry": { "type": "Point", "coordinates": [ -0.195887968418702, 51.522280190675644 ] } },
{ "type": "Feature", "properties": { "id": 189.000000, "osm_id": 899414436.000000, "name": "Lister Lodge", "type": "locality", "z_order": 1.000000, "population": null }, "geometry": { "type": "Point", "coordinates": [ -0.194966881078983, 51.521939131035509 ] } },
{ "type": "Feature", "properties": { "id": 190.000000, "osm_id": 899414534.000000, "name": "Sycamore Lodge", "type": "locality", "z_order": 1.000000, "population": null }, "geometry": { "type": "Point", "coordinates": [ -0.197895182771674, 51.522251859842925 ] } },
{ "type": "Feature", "properties": { "id": 191.000000, "osm_id": 899414535.000000, "name": "Bluebell Lodge", "type": "locality", "z_order": 1.000000, "population": null }, "geometry": { "type": "Point", "coordinates": [ -0.198183939335991, 51.522203747718692 ] } },
{ "type": "Feature", "properties": { "id": 192.000000, "osm_id": 899414496.000000, "name": "Barnard Lodge", "type": "locality", "z_order": 1.000000, "population": null }, "geometry": { "type": "Point", "coordinates": [ -0.194527417895586, 51.522464424907412 ] } },
{ "type": "Feature", "properties": { "id": 193.000000, "osm_id": 899414498.000000, "name": "Beech Court", "type": "locality", "z_order": 1.000000, "population": null }, "geometry": { "type": "Point", "coordinates": [ -0.196142526818079, 51.522366189002213 ] } },
{ "type": "Feature", "properties": { "id": 194.000000, "osm_id": 899414502.000000, "name": "Union Court", "type": "locality", "z_order": 1.000000, "population": null }, "geometry": { "type": "Point", "coordinates": [ -0.19643404941047, 51.522316484316377 ] } },
{ "type": "Feature", "properties": { "id": 195.000000, "osm_id": 907444607.000000, "name": "Hilgrove Estate", "type": "locality", "z_order": 1.000000, "population": null }, "geometry": { "type": "Point", "coordinates": [ -0.17614347348416, 51.540300025213213 ] } },
{ "type": "Feature", "properties": { "id": 196.000000, "osm_id": 907927467.000000, "name": "Oldfield Estate", "type": "locality", "z_order": 1.000000, "population": null }, "geometry": { "type": "Point", "coordinates": [ -0.156207535881094, 51.539417326990019 ] } },
{ "type": "Feature", "properties": { "id": 197.000000, "osm_id": 907426534.000000, "name": "Boundary Estate", "type": "locality", "z_order": 1.000000, "population": null }, "geometry": { "type": "Point", "coordinates": [ -0.182039136538322, 51.538501855525418 ] } },
{ "type": "Feature", "properties": { "id": 198.000000, "osm_id": 907961720.000000, "name": "Hilgrove Estate", "type": "locality", "z_order": 1.000000, "population": null }, "geometry": { "type": "Point", "coordinates": [ -0.17602906050584, 51.543102682177363 ] } },
{ "type": "Feature", "properties": { "id": 199.000000, "osm_id": 907961716.000000, "name": "Campden Estate", "type": "locality", "z_order": 1.000000, "population": null }, "geometry": { "type": "Point", "coordinates": [ -0.177178638526073, 51.544392489437676 ] } },
{ "type": "Feature", "properties": { "id": 200.000000, "osm_id": 909513916.000000, "name": "Harrow Road Open Space", "type": "locality", "z_order": 1.000000, "population": null }, "geometry": { "type": "Point", "coordinates": [ -0.21125090728836, 51.52685159684745 ] } },
{ "type": "Feature", "properties": { "id": 201.000000, "osm_id": 945446441.000000, "name": "Pilton Place Estate", "type": "locality", "z_order": 1.000000, "population": null }, "geometry": { "type": "Point", "coordinates": [ -0.093990009728628, 51.488616372055013 ] } },
{ "type": "Feature", "properties": { "id": 202.000000, "osm_id": 945446434.000000, "name": "Browning Estate", "type": "locality", "z_order": 1.000000, "population": null }, "geometry": { "type": "Point", "coordinates": [ -0.094539275843573, 51.489400163820754 ] } },
{ "type": "Feature", "properties": { "id": 203.000000, "osm_id": 956345724.000000, "name": "Mayford Estate", "type": "locality", "z_order": 1.000000, "population": null }, "geometry": { "type": "Point", "coordinates": [ -0.135453859804443, 51.53341605195584 ] } },
{ "type": "Feature", "properties": { "id": 204.000000, "osm_id": 988600745.000000, "name": "Maitland Park Estate", "type": "locality", "z_order": 1.000000, "population": null }, "geometry": { "type": "Point", "coordinates": [ -0.157385444734075, 51.547202690114688 ] } },
{ "type": "Feature", "properties": { "id": 205.000000, "osm_id": 988666135.000000, "name": "Clarence Way Estate", "type": "locality", "z_order": 1.000000, "population": null }, "geometry": { "type": "Point", "coordinates": [ -0.143185075834594, 51.543315833975043 ] } },
{ "type": "Feature", "properties": { "id": 206.000000, "osm_id": 990502142.000000, "name": "Upper Hilldrop Estate", "type": "locality", "z_order": 1.000000, "population": null }, "geometry": { "type": "Point", "coordinates": [ -0.131416380864806, 51.552618070117035 ] } },
{ "type": "Feature", "properties": { "id": 207.000000, "osm_id": 996533670.000000, "name": "Clem Attlee Estate", "type": "locality", "z_order": 1.000000, "population": null }, "geometry": { "type": "Point", "coordinates": [ -0.203126579999349, 51.484254094367401 ] } },
{ "type": "Feature", "properties": { "id": 208.000000, "osm_id": 996556105.000000, "name": "Peabody Fulham Estate", "type": "locality", "z_order": 1.000000, "population": null }, "geometry": { "type": "Point", "coordinates": [ -0.201255236296845, 51.485325888326194 ] } },
{ "type": "Feature", "properties": { "id": 209.000000, "osm_id": 1005262270.000000, "name": "Geoffrey Jones Court", "type": "locality", "z_order": 1.000000, "population": null }, "geometry": { "type": "Point", "coordinates": [ -0.236472053937462, 51.540854320470089 ] } },
{ "type": "Feature", "properties": { "id": 210.000000, "osm_id": 1005262269.000000, "name": "Spring Court", "type": "locality", "z_order": 1.000000, "population": null }, "geometry": { "type": "Point", "coordinates": [ -0.236856364197962, 51.540773435104448 ] } },
{ "type": "Feature", "properties": { "id": 211.000000, "osm_id": 1008905690.000000, "name": "Roundwood Estate", "type": "locality", "z_order": 1.000000, "population": null }, "geometry": { "type": "Point", "coordinates": [ -0.244764606023125, 51.541184064540943 ] } },
{ "type": "Feature", "properties": { "id": 212.000000, "osm_id": 1010857555.000000, "name": "Leonard Court", "type": "locality", "z_order": 1.000000, "population": null }, "geometry": { "type": "Point", "coordinates": [ -0.179324657195593, 51.515410466653663 ] } },
{ "type": "Feature", "properties": { "id": 213.000000, "osm_id": 1022389854.000000, "name": "Lynton Estate", "type": "locality", "z_order": 1.000000, "population": null }, "geometry": { "type": "Point", "coordinates": [ -0.070161767748885, 51.489638880423144 ] } },
{ "type": "Feature", "properties": { "id": 214.000000, "osm_id": 1022389857.000000, "name": "Astley Estate", "type": "locality", "z_order": 1.000000, "population": null }, "geometry": { "type": "Point", "coordinates": [ -0.073687531499786, 51.487839369630848 ] } },
{ "type": "Feature", "properties": { "id": 215.000000, "osm_id": 1022389851.000000, "name": "Longfield Estate", "type": "locality", "z_order": 1.000000, "population": null }, "geometry": { "type": "Point", "coordinates": [ -0.07331713519855, 51.491850864670653 ] } },
{ "type": "Feature", "properties": { "id": 216.000000, "osm_id": 1022696413.000000, "name": "Manor Estate", "type": "locality", "z_order": 1.000000, "population": null }, "geometry": { "type": "Point", "coordinates": [ -0.062479082938097, 51.490780495635391 ] } },
{ "type": "Feature", "properties": { "id": 217.000000, "osm_id": 1023795299.000000, "name": "Peabody Hammersmith Estate", "type": "locality", "z_order": 1.000000, "population": null }, "geometry": { "type": "Point", "coordinates": [ -0.224118218307098, 51.489498232087897 ] } },
{ "type": "Feature", "properties": { "id": 218.000000, "osm_id": 1022696186.000000, "name": "Rennie Estate", "type": "locality", "z_order": 1.000000, "population": null }, "geometry": { "type": "Point", "coordinates": [ -0.057939527998371, 51.489942975870292 ] } },
{ "type": "Feature", "properties": { "id": 219.000000, "osm_id": 1115184006.000000, "name": "Wellington Mills Estate", "type": "locality", "z_order": 1.000000, "population": null }, "geometry": { "type": "Point", "coordinates": [ -0.111533416889813, 51.497877955966594 ] } },
{ "type": "Feature", "properties": { "id": 220.000000, "osm_id": 1115243525.000000, "name": "Whitgift Estate", "type": "locality", "z_order": 1.000000, "population": null }, "geometry": { "type": "Point", "coordinates": [ -0.11904435650456, 51.494263763137212 ] } },
{ "type": "Feature", "properties": { "id": 221.000000, "osm_id": 1116643128.000000, "name": "York Road Estate", "type": "locality", "z_order": 1.000000, "population": null }, "geometry": { "type": "Point", "coordinates": [ -0.172919709704587, 51.466980165393238 ] } },
{ "type": "Feature", "properties": { "id": 222.000000, "osm_id": 1125067421.000000, "name": "St John's Estate", "type": "locality", "z_order": 1.000000, "population": null }, "geometry": { "type": "Point", "coordinates": [ -0.076567469611177, 51.500819752523391 ] } },
{ "type": "Feature", "properties": { "id": 223.000000, "osm_id": 1126374577.000000, "name": "Dragon Court", "type": "locality", "z_order": 1.000000, "population": null }, "geometry": { "type": "Point", "coordinates": [ -0.121611146713406, 51.516584519831184 ] } },
{ "type": "Feature", "properties": { "id": 224.000000, "osm_id": 1129263150.000000, "name": "Longberrys Estate", "type": "locality", "z_order": 1.000000, "population": null }, "geometry": { "type": "Point", "coordinates": [ -0.201935343920326, 51.562561689489819 ] } },
{ "type": "Feature", "properties": { "id": 225.000000, "osm_id": 1132203206.000000, "name": "St Mary's Gardens", "type": "locality", "z_order": 1.000000, "population": null }, "geometry": { "type": "Point", "coordinates": [ -0.12021882877724, 51.494613623775678 ] } },
{ "type": "Feature", "properties": { "id": 226.000000, "osm_id": 1143740400.000000, "name": "Chelsea Manor Estate", "type": "locality", "z_order": 1.000000, "population": null }, "geometry": { "type": "Point", "coordinates": [ -0.167382708287192, 51.485947993179735 ] } },
{ "type": "Feature", "properties": { "id": 227.000000, "osm_id": 1159496178.000000, "name": "Wharton Cottages", "type": "locality", "z_order": 1.000000, "population": null }, "geometry": { "type": "Point", "coordinates": [ -0.113082224958219, 51.527905537352495 ] } },
{ "type": "Feature", "properties": { "id": 228.000000, "osm_id": 1169713412.000000, "name": "Portland Court", "type": "locality", "z_order": 1.000000, "population": null }, "geometry": { "type": "Point", "coordinates": [ -0.172903113536307, 51.547207467799495 ] } },
{ "type": "Feature", "properties": { "id": 229.000000, "osm_id": 1180388768.000000, "name": "Gray's Inn", "type": "locality", "z_order": 1.000000, "population": null }, "geometry": { "type": "Point", "coordinates": [ -0.112812411495071, 51.518938158242293 ] } },
{ "type": "Feature", "properties": { "id": 230.000000, "osm_id": 1210404028.000000, "name": "Chelsea Manor Court", "type": "locality", "z_order": 1.000000, "population": null }, "geometry": { "type": "Point", "coordinates": [ -0.166082423647879, 51.486605050569494 ] } },
{ "type": "Feature", "properties": { "id": 231.000000, "osm_id": 1212967017.000000, "name": "Savoy Circus", "type": "locality", "z_order": 1.000000, "population": null }, "geometry": { "type": "Point", "coordinates": [ -0.24897173468301, 51.513676669982232 ] } },
{ "type": "Feature", "properties": { "id": 232.000000, "osm_id": 1228088100.000000, "name": "Norbury", "type": "suburb", "z_order": 3.000000, "population": null }, "geometry": { "type": "Point", "coordinates": [ -0.122486971775999, 51.411066249522378 ] } },
{ "type": "Feature", "properties": { "id": 233.000000, "osm_id": 1229534229.000000, "name": "Cranbrook Estate", "type": "locality", "z_order": 1.000000, "population": null }, "geometry": { "type": "Point", "coordinates": [ -0.045893559671583, 51.530448355318242 ] } },
{ "type": "Feature", "properties": { "id": 234.000000, "osm_id": 1263619631.000000, "name": "Brunel Estate", "type": "locality", "z_order": 1.000000, "population": null }, "geometry": { "type": "Point", "coordinates": [ -0.198973933710107, 51.519664869247435 ] } },
{ "type": "Feature", "properties": { "id": 235.000000, "osm_id": 1268388024.000000, "name": "Gunter Hall Studios", "type": "locality", "z_order": 1.000000, "population": null }, "geometry": { "type": "Point", "coordinates": [ -0.184949081863095, 51.483120777239293 ] } },
{ "type": "Feature", "properties": { "id": 236.000000, "osm_id": 1271399142.000000, "name": "Cremorne Estate", "type": "locality", "z_order": 1.000000, "population": null }, "geometry": { "type": "Point", "coordinates": [ -0.177560769491748, 51.482449889709301 ] } },
{ "type": "Feature", "properties": { "id": 237.000000, "osm_id": 1268990533.000000, "name": "Cresswood", "type": "locality", "z_order": 1.000000, "population": null }, "geometry": { "type": "Point", "coordinates": [ -0.148584949316074, 51.551291466301763 ] } },
{ "type": "Feature", "properties": { "id": 238.000000, "osm_id": 1275720346.000000, "name": "Queen's Elm Parade", "type": "locality", "z_order": 1.000000, "population": null }, "geometry": { "type": "Point", "coordinates": [ -0.175535534046986, 51.489259850761641 ] } },
{ "type": "Feature", "properties": { "id": 239.000000, "osm_id": 1275832562.000000, "name": "Peabody Estate", "type": "locality", "z_order": 1.000000, "population": null }, "geometry": { "type": "Point", "coordinates": [ -0.132652376306765, 51.48641662538617 ] } },
{ "type": "Feature", "properties": { "id": 240.000000, "osm_id": 1275835685.000000, "name": "Rosery Gate", "type": "locality", "z_order": 1.000000, "population": null }, "geometry": { "type": "Point", "coordinates": [ -0.149111668111487, 51.478086438555238 ] } },
{ "type": "Feature", "properties": { "id": 241.000000, "osm_id": 1277094320.000000, "name": "Brompton Court", "type": "locality", "z_order": 1.000000, "population": null }, "geometry": { "type": "Point", "coordinates": [ -0.182686722377525, 51.485120196422308 ] } },
{ "type": "Feature", "properties": { "id": 242.000000, "osm_id": 1277108553.000000, "name": "Tregunter Estate", "type": "locality", "z_order": 1.000000, "population": null }, "geometry": { "type": "Point", "coordinates": [ -0.188570566948243, 51.485652195816726 ] } },
{ "type": "Feature", "properties": { "id": 243.000000, "osm_id": 1279783544.000000, "name": "Britannia Business Village", "type": "locality", "z_order": 1.000000, "population": null }, "geometry": { "type": "Point", "coordinates": [ -0.214902483405893, 51.557537660546643 ] } },
{ "type": "Feature", "properties": { "id": 244.000000, "osm_id": 1271375989.000000, "name": "Servite Houses", "type": "locality", "z_order": 1.000000, "population": null }, "geometry": { "type": "Point", "coordinates": [ -0.178068377547959, 51.482094497014742 ] } },
{ "type": "Feature", "properties": { "id": 245.000000, "osm_id": 1284722492.000000, "name": "Wandon Estate", "type": "locality", "z_order": 1.000000, "population": null }, "geometry": { "type": "Point", "coordinates": [ -0.188364204492103, 51.480422558788717 ] } },
{ "type": "Feature", "properties": { "id": 246.000000, "osm_id": 1285412250.000000, "name": "Chelsea Studios", "type": "locality", "z_order": 1.000000, "population": null }, "geometry": { "type": "Point", "coordinates": [ -0.190089703079394, 51.480316360075506 ] } },
{ "type": "Feature", "properties": { "id": 247.000000, "osm_id": 1289578012.000000, "name": "Chesterton Square", "type": "locality", "z_order": 1.000000, "population": null }, "geometry": { "type": "Point", "coordinates": [ -0.201047616555229, 51.493940221674706 ] } },
{ "type": "Feature", "properties": { "id": 248.000000, "osm_id": 1289587749.000000, "name": "Scarsdale Studios", "type": "locality", "z_order": 1.000000, "population": null }, "geometry": { "type": "Point", "coordinates": [ -0.195050113377476, 51.496741537534319 ] } },
{ "type": "Feature", "properties": { "id": 249.000000, "osm_id": 1289587752.000000, "name": "The Marloes", "type": "locality", "z_order": 1.000000, "population": null }, "geometry": { "type": "Point", "coordinates": [ -0.191702213611933, 51.49543169752539 ] } },
{ "type": "Feature", "properties": { "id": 250.000000, "osm_id": 1304814220.000000, "name": "Wood Lane Estate", "type": "locality", "z_order": 1.000000, "population": null }, "geometry": { "type": "Point", "coordinates": [ -0.225374246497665, 51.511975395095106 ] } },
{ "type": "Feature", "properties": { "id": 251.000000, "osm_id": 1311769887.000000, "name": "Royal Parade", "type": "locality", "z_order": 1.000000, "population": null }, "geometry": { "type": "Point", "coordinates": [ -0.212866602944075, 51.481603652764896 ] } },
{ "type": "Feature", "properties": { "id": 252.000000, "osm_id": 1313310991.000000, "name": "North Kensington", "type": "suburb", "z_order": 3.000000, "population": null }, "geometry": { "type": "Point", "coordinates": [ -0.21069594147923, 51.51966461779034 ] } },
{ "type": "Feature", "properties": { "id": 253.000000, "osm_id": 1341723809.000000, "name": "Temple Mills", "type": "suburb", "z_order": 3.000000, "population": null }, "geometry": { "type": "Point", "coordinates": [ -0.007472256628688, 51.550616974553378 ] } },
{ "type": "Feature", "properties": { "id": 254.000000, "osm_id": 1341723829.000000, "name": "Stratford New Town", "type": "suburb", "z_order": 3.000000, "population": null }, "geometry": { "type": "Point", "coordinates": [ 0.002976791505461, 51.550677743351372 ] } },
{ "type": "Feature", "properties": { "id": 255.000000, "osm_id": 1341723836.000000, "name": "Forest Gate", "type": "suburb", "z_order": 3.000000, "population": null }, "geometry": { "type": "Point", "coordinates": [ 0.024924721146277, 51.549523555284395 ] } },
{ "type": "Feature", "properties": { "id": 256.000000, "osm_id": 1386030657.000000, "name": "Oxford Court", "type": "locality", "z_order": 1.000000, "population": null }, "geometry": { "type": "Point", "coordinates": [ -0.196326425773719, 51.521724386676198 ] } },
{ "type": "Feature", "properties": { "id": 257.000000, "osm_id": 1451345431.000000, "name": "New Orleans Estate", "type": "neighbourhood", "z_order": 2.000000, "population": null }, "geometry": { "type": "Point", "coordinates": [ -0.127930347334939, 51.573162282433373 ] } },
{ "type": "Feature", "properties": { "id": 258.000000, "osm_id": 1452965570.000000, "name": "Stroud Green", "type": "suburb", "z_order": 3.000000, "population": null }, "geometry": { "type": "Point", "coordinates": [ -0.111497207068112, 51.571686396922587 ] } },
{ "type": "Feature", "properties": { "id": 259.000000, "osm_id": 1503483262.000000, "name": "Royal Standard", "type": "locality", "z_order": 1.000000, "population": null }, "geometry": { "type": "Point", "coordinates": [ 0.019203653135207, 51.477029396746019 ] } },
{ "type": "Feature", "properties": { "id": 260.000000, "osm_id": 1569016949.000000, "name": "Kilburn", "type": "town", "z_order": 6.000000, "population": 16989.000000 }, "geometry": { "type": "Point", "coordinates": [ -0.197935835002056, 51.541881941799176 ] } },
{ "type": "Feature", "properties": { "id": 261.000000, "osm_id": 1639959450.000000, "name": "Fulham", "type": "town", "z_order": 6.000000, "population": null }, "geometry": { "type": "Point", "coordinates": [ -0.206077261373537, 51.474422038125823 ] } },
{ "type": "Feature", "properties": { "id": 262.000000, "osm_id": 1653239257.000000, "name": "St. James's", "type": "neighbourhood", "z_order": 2.000000, "population": null }, "geometry": { "type": "Point", "coordinates": [ -0.136572760059096, 51.507908160399182 ] } },
{ "type": "Feature", "properties": { "id": 263.000000, "osm_id": 1669242693.000000, "name": "Telegraph Hill", "type": "neighbourhood", "z_order": 2.000000, "population": null }, "geometry": { "type": "Point", "coordinates": [ -0.046792351148866, 51.468658222408578 ] } },
{ "type": "Feature", "properties": { "id": 264.000000, "osm_id": 1671182708.000000, "name": "Hampstead", "type": "suburb", "z_order": 3.000000, "population": null }, "geometry": { "type": "Point", "coordinates": [ -0.174074735961881, 51.554287829048199 ] } },
{ "type": "Feature", "properties": { "id": 265.000000, "osm_id": 1674488095.000000, "name": "Little Venice", "type": "locality", "z_order": 1.000000, "population": null }, "geometry": { "type": "Point", "coordinates": [ -0.182404503697654, 51.521194734214674 ] } },
{ "type": "Feature", "properties": { "id": 266.000000, "osm_id": 1712699731.000000, "name": "Merton", "type": "suburb", "z_order": 3.000000, "population": null }, "geometry": { "type": "Point", "coordinates": [ -0.18806086341624, 51.41439118287326 ] } },
{ "type": "Feature", "properties": { "id": 267.000000, "osm_id": 1712699734.000000, "name": "Merton Park", "type": "suburb", "z_order": 3.000000, "population": null }, "geometry": { "type": "Point", "coordinates": [ -0.20196543495274, 51.407993779095108 ] } },
{ "type": "Feature", "properties": { "id": 268.000000, "osm_id": 1716927288.000000, "name": "Finsbury", "type": "suburb", "z_order": 3.000000, "population": null }, "geometry": { "type": "Point", "coordinates": [ -0.107071310735392, 51.526574155852408 ] } },
{ "type": "Feature", "properties": { "id": 269.000000, "osm_id": 1755339535.000000, "name": "Childs Hill", "type": "suburb", "z_order": 3.000000, "population": null }, "geometry": { "type": "Point", "coordinates": [ -0.197249440951197, 51.562982125752995 ] } },
{ "type": "Feature", "properties": { "id": 270.000000, "osm_id": 1755339536.000000, "name": "Brent Cross", "type": "suburb", "z_order": 3.000000, "population": null }, "geometry": { "type": "Point", "coordinates": [ -0.218380135032589, 51.576759459999323 ] } },
{ "type": "Feature", "properties": { "id": 271.000000, "osm_id": 1755342824.000000, "name": "West Hendon", "type": "suburb", "z_order": 3.000000, "population": null }, "geometry": { "type": "Point", "coordinates": [ -0.240379361920816, 51.578212965828641 ] } },
{ "type": "Feature", "properties": { "id": 272.000000, "osm_id": 1769839663.000000, "name": "Belsize Park", "type": "suburb", "z_order": 3.000000, "population": null }, "geometry": { "type": "Point", "coordinates": [ -0.168300526684703, 51.547392540221551 ] } },
{ "type": "Feature", "properties": { "id": 273.000000, "osm_id": 1769839658.000000, "name": "Chalk Farm", "type": "suburb", "z_order": 3.000000, "population": null }, "geometry": { "type": "Point", "coordinates": [ -0.150819983797305, 51.543617833946392 ] } },
{ "type": "Feature", "properties": { "id": 274.000000, "osm_id": 1846244241.000000, "name": "South Hampstead", "type": "suburb", "z_order": 3.000000, "population": null }, "geometry": { "type": "Point", "coordinates": [ -0.185202634434091, 51.543504594434516 ] } },
{ "type": "Feature", "properties": { "id": 275.000000, "osm_id": 1846244237.000000, "name": "West Hampstead", "type": "suburb", "z_order": 3.000000, "population": null }, "geometry": { "type": "Point", "coordinates": [ -0.191727946054669, 51.550989717787502 ] } },
{ "type": "Feature", "properties": { "id": 276.000000, "osm_id": 1846245190.000000, "name": "Swiss Cottage", "type": "neighbourhood", "z_order": 2.000000, "population": null }, "geometry": { "type": "Point", "coordinates": [ -0.17501786770697, 51.543851772863974 ] } },
{ "type": "Feature", "properties": { "id": 277.000000, "osm_id": 1846251039.000000, "name": "North Cricklewood", "type": "suburb", "z_order": 3.000000, "population": null }, "geometry": { "type": "Point", "coordinates": [ -0.216786567601247, 51.566186527336242 ] } },
{ "type": "Feature", "properties": { "id": 278.000000, "osm_id": 1846245653.000000, "name": "Tufnell Park", "type": "suburb", "z_order": 3.000000, "population": null }, "geometry": { "type": "Point", "coordinates": [ -0.139113063453891, 51.555916265196771 ] } },
{ "type": "Feature", "properties": { "id": 279.000000, "osm_id": 1846253665.000000, "name": "Highgate", "type": "suburb", "z_order": 3.000000, "population": null }, "geometry": { "type": "Point", "coordinates": [ -0.152683783786955, 51.574432140764138 ] } },
{ "type": "Feature", "properties": { "id": 280.000000, "osm_id": 1846253666.000000, "name": "Hampstead Garden Suburb", "type": "suburb", "z_order": 3.000000, "population": null }, "geometry": { "type": "Point", "coordinates": [ -0.180616476112704, 51.580508098555612 ] } },
{ "type": "Feature", "properties": { "id": 281.000000, "osm_id": 1868669482.000000, "name": "Holborn", "type": "neighbourhood", "z_order": 2.000000, "population": null }, "geometry": { "type": "Point", "coordinates": [ -0.11952841141283, 51.517934090061146 ] } },
{ "type": "Feature", "properties": { "id": 282.000000, "osm_id": 1893963802.000000, "name": "Carpenters Estate", "type": "locality", "z_order": 1.000000, "population": null }, "geometry": { "type": "Point", "coordinates": [ -0.004586870280235, 51.539028574320838 ] } },
{ "type": "Feature", "properties": { "id": 283.000000, "osm_id": 1923644598.000000, "name": "Caesar's Well", "type": "locality", "z_order": 1.000000, "population": null }, "geometry": { "type": "Point", "coordinates": [ -0.241214450933995, 51.429464946083414 ] } },
{ "type": "Feature", "properties": { "id": 284.000000, "osm_id": 1939814830.000000, "name": "Nightingale Triangle", "type": "locality", "z_order": 1.000000, "population": null }, "geometry": { "type": "Point", "coordinates": [ -0.15548124397111, 51.448484490212479 ] } },
{ "type": "Feature", "properties": { "id": 285.000000, "osm_id": 2029724900.000000, "name": "Lombard Business Park", "type": "hamlet", "z_order": 4.000000, "population": null }, "geometry": { "type": "Point", "coordinates": [ -0.190581217881487, 51.409891358154539 ] } },
{ "type": "Feature", "properties": { "id": 286.000000, "osm_id": 2065711984.000000, "name": "Hornsey Lane Estate", "type": "hamlet", "z_order": 4.000000, "population": null }, "geometry": { "type": "Point", "coordinates": [ -0.13146935449285, 51.572621984954793 ] } },
{ "type": "Feature", "properties": { "id": 287.000000, "osm_id": 2116229698.000000, "name": "Chohole Gate", "type": "locality", "z_order": 1.000000, "population": null }, "geometry": { "type": "Point", "coordinates": [ -0.243175481000463, 51.441793552185203 ] } },
{ "type": "Feature", "properties": { "id": 288.000000, "osm_id": 2133924981.000000, "name": "Hackney", "type": "suburb", "z_order": 3.000000, "population": null }, "geometry": { "type": "Point", "coordinates": [ -0.049362158842854, 51.543240145389397 ] } },
{ "type": "Feature", "properties": { "id": 289.000000, "osm_id": 2142666564.000000, "name": "The Tonsleys", "type": "locality", "z_order": 1.000000, "population": null }, "geometry": { "type": "Point", "coordinates": [ -0.188874746214395, 51.458576133995336 ] } },
{ "type": "Feature", "properties": { "id": 290.000000, "osm_id": 2142740388.000000, "name": "The Toast Rack", "type": "locality", "z_order": 1.000000, "population": null }, "geometry": { "type": "Point", "coordinates": [ -0.171594279355759, 51.448990924802217 ] } },
{ "type": "Feature", "properties": { "id": 291.000000, "osm_id": 2142742665.000000, "name": "East Hill Estate", "type": "locality", "z_order": 1.000000, "population": null }, "geometry": { "type": "Point", "coordinates": [ -0.18152423622638, 51.460693486555982 ] } },
{ "type": "Feature", "properties": { "id": 292.000000, "osm_id": 2143361135.000000, "name": "West Norwood", "type": "suburb", "z_order": 3.000000, "population": null }, "geometry": { "type": "Point", "coordinates": [ -0.103691727375832, 51.43461914598285 ] } },
{ "type": "Feature", "properties": { "id": 293.000000, "osm_id": 2143763192.000000, "name": "Falcon Estate", "type": "locality", "z_order": 1.000000, "population": null }, "geometry": { "type": "Point", "coordinates": [ -0.167950582227206, 51.468232757003477 ] } },
{ "type": "Feature", "properties": { "id": 294.000000, "osm_id": 2143779938.000000, "name": "Clapham Junction", "type": "suburb", "z_order": 3.000000, "population": null }, "geometry": { "type": "Point", "coordinates": [ -0.167866427919336, 51.463614998907126 ] } },
{ "type": "Feature", "properties": { "id": 295.000000, "osm_id": 2143799356.000000, "name": "Wandsworth Riverside Quarter", "type": "locality", "z_order": 1.000000, "population": null }, "geometry": { "type": "Point", "coordinates": [ -0.197686976296836, 51.46228479087349 ] } },
{ "type": "Feature", "properties": { "id": 296.000000, "osm_id": 2144167585.000000, "name": "Sands End", "type": "suburb", "z_order": 3.000000, "population": null }, "geometry": { "type": "Point", "coordinates": [ -0.187112283434118, 51.472545330005289 ] } },
{ "type": "Feature", "properties": { "id": 297.000000, "osm_id": 2144198505.000000, "name": "Putney Vale", "type": "suburb", "z_order": 3.000000, "population": null }, "geometry": { "type": "Point", "coordinates": [ -0.245970175156572, 51.438019265005181 ] } },
{ "type": "Feature", "properties": { "id": 298.000000, "osm_id": 2144202565.000000, "name": "Furzedown", "type": "suburb", "z_order": 3.000000, "population": null }, "geometry": { "type": "Point", "coordinates": [ -0.153702268841585, 51.424388949340532 ] } },
{ "type": "Feature", "properties": { "id": 299.000000, "osm_id": 2144191662.000000, "name": "Nine Elms", "type": "suburb", "z_order": 3.000000, "population": null }, "geometry": { "type": "Point", "coordinates": [ -0.13626296491779, 51.478743244487895 ] } },
{ "type": "Feature", "properties": { "id": 300.000000, "osm_id": 2144202566.000000, "name": "Streatham Park", "type": "suburb", "z_order": 3.000000, "population": null }, "geometry": { "type": "Point", "coordinates": [ -0.145060275212586, 51.424938550731639 ] } },
{ "type": "Feature", "properties": { "id": 301.000000, "osm_id": 2144208752.000000, "name": "Abbeville Village", "type": "hamlet", "z_order": 4.000000, "population": null }, "geometry": { "type": "Point", "coordinates": [ -0.139885958745509, 51.454466235412262 ] } },
{ "type": "Feature", "properties": { "id": 302.000000, "osm_id": 2145146467.000000, "name": "Kingston Vale", "type": "suburb", "z_order": 3.000000, "population": null }, "geometry": { "type": "Point", "coordinates": [ -0.258137932536471, 51.431849932812376 ] } },
{ "type": "Feature", "properties": { "id": 303.000000, "osm_id": 2144212125.000000, "name": "Clapham Park", "type": "suburb", "z_order": 3.000000, "population": null }, "geometry": { "type": "Point", "coordinates": [ -0.131835476023468, 51.456242528332808 ] } },
{ "type": "Feature", "properties": { "id": 304.000000, "osm_id": 2204803424.000000, "name": "Pearscroft Estate", "type": "locality", "z_order": 1.000000, "population": null }, "geometry": { "type": "Point", "coordinates": [ -0.189504981514006, 51.473958518880323 ] } },
{ "type": "Feature", "properties": { "id": 305.000000, "osm_id": 2204895301.000000, "name": "Battersea Reach", "type": "locality", "z_order": 1.000000, "population": null }, "geometry": { "type": "Point", "coordinates": [ -0.184787730226986, 51.464122774601378 ] } },
{ "type": "Feature", "properties": { "id": 306.000000, "osm_id": 2207920770.000000, "name": "Blenheim Gardens Estate", "type": "locality", "z_order": 1.000000, "population": null }, "geometry": { "type": "Point", "coordinates": [ -0.12505543836545, 51.45476739719328 ] } },
{ "type": "Feature", "properties": { "id": 307.000000, "osm_id": 2246115996.000000, "name": "Plantation Wharf", "type": "locality", "z_order": 1.000000, "population": null }, "geometry": { "type": "Point", "coordinates": [ -0.180776402825245, 51.467003383265023 ] } },
{ "type": "Feature", "properties": { "id": 308.000000, "osm_id": 2268352172.000000, "name": "Notting Hill", "type": "suburb", "z_order": 3.000000, "population": null }, "geometry": { "type": "Point", "coordinates": [ -0.205526737973088, 51.51099949010861 ] } },
{ "type": "Feature", "properties": { "id": 309.000000, "osm_id": 2272513642.000000, "name": "Bayswater", "type": "suburb", "z_order": 3.000000, "population": null }, "geometry": { "type": "Point", "coordinates": [ -0.187632380526026, 51.512413433354936 ] } },
{ "type": "Feature", "properties": { "id": 310.000000, "osm_id": 2288027626.000000, "name": "Belgravia", "type": "suburb", "z_order": 3.000000, "population": null }, "geometry": { "type": "Point", "coordinates": [ -0.153499845879935, 51.498212729179357 ] } },
{ "type": "Feature", "properties": { "id": 311.000000, "osm_id": 2288030394.000000, "name": "Victoria", "type": "suburb", "z_order": 3.000000, "population": null }, "geometry": { "type": "Point", "coordinates": [ -0.141317252531422, 51.495978532888444 ] } },
{ "type": "Feature", "properties": { "id": 312.000000, "osm_id": 2288030397.000000, "name": "Millbank", "type": "suburb", "z_order": 3.000000, "population": null }, "geometry": { "type": "Point", "coordinates": [ -0.129043547895407, 51.492612025297824 ] } },
{ "type": "Feature", "properties": { "id": 313.000000, "osm_id": 2290086954.000000, "name": "Covent Garden", "type": "suburb", "z_order": 3.000000, "population": null }, "geometry": { "type": "Point", "coordinates": [ -0.122676905701894, 51.511736259397566 ] } },
{ "type": "Feature", "properties": { "id": 314.000000, "osm_id": 2315701786.000000, "name": "Spencer Park", "type": "locality", "z_order": 1.000000, "population": null }, "geometry": { "type": "Point", "coordinates": [ -0.176322930031091, 51.45732756569862 ] } },
{ "type": "Feature", "properties": { "id": 315.000000, "osm_id": 2315701689.000000, "name": "Windmill Green Estate", "type": "locality", "z_order": 1.000000, "population": null }, "geometry": { "type": "Point", "coordinates": [ -0.173940876968203, 51.454115788040582 ] } },
{ "type": "Feature", "properties": { "id": 316.000000, "osm_id": 2320596670.000000, "name": "Riverside West", "type": "locality", "z_order": 1.000000, "population": null }, "geometry": { "type": "Point", "coordinates": [ -0.190124571796616, 51.462934053093299 ] } },
{ "type": "Feature", "properties": { "id": 317.000000, "osm_id": 2333135302.000000, "name": "Morgan's Walk", "type": "locality", "z_order": 1.000000, "population": null }, "geometry": { "type": "Point", "coordinates": [ -0.172627013645752, 51.478709968332311 ] } },
{ "type": "Feature", "properties": { "id": 318.000000, "osm_id": 2369008993.000000, "name": "Golders Green", "type": "suburb", "z_order": 3.000000, "population": null }, "geometry": { "type": "Point", "coordinates": [ -0.195521930707116, 51.571831487666515 ] } },
{ "type": "Feature", "properties": { "id": 319.000000, "osm_id": 2392813733.000000, "name": "Mildmay Park", "type": "neighbourhood", "z_order": 2.000000, "population": null }, "geometry": { "type": "Point", "coordinates": [ -0.085296383576065, 51.547397820820549 ] } },
{ "type": "Feature", "properties": { "id": 320.000000, "osm_id": 2392802550.000000, "name": "Canonbury", "type": "suburb", "z_order": 3.000000, "population": null }, "geometry": { "type": "Point", "coordinates": [ -0.095400851670775, 51.543035794590018 ] } },
{ "type": "Feature", "properties": { "id": 321.000000, "osm_id": 2405848798.000000, "name": "Upper Norwood", "type": "suburb", "z_order": 3.000000, "population": null }, "geometry": { "type": "Point", "coordinates": [ -0.094034769091564, 51.416405270386804 ] } },
{ "type": "Feature", "properties": { "id": 322.000000, "osm_id": 2484565491.000000, "name": "Wanstead Slip", "type": "suburb", "z_order": 3.000000, "population": null }, "geometry": { "type": "Point", "coordinates": [ 0.00676314862605, 51.55276156829936 ] } },
{ "type": "Feature", "properties": { "id": 323.000000, "osm_id": 2670051594.000000, "name": "Leonard Circus", "type": "locality", "z_order": 1.000000, "population": null }, "geometry": { "type": "Point", "coordinates": [ -0.084035661519749, 51.524664590671421 ] } },
{ "type": "Feature", "properties": { "id": 324.000000, "osm_id": 2681755461.000000, "name": "Upper Sydenham", "type": "hamlet", "z_order": 4.000000, "population": null }, "geometry": { "type": "Point", "coordinates": [ -0.060673034261299, 51.432402048774428 ] } },
{ "type": "Feature", "properties": { "id": 325.000000, "osm_id": 2681755462.000000, "name": "Crofton Park", "type": "hamlet", "z_order": 4.000000, "population": null }, "geometry": { "type": "Point", "coordinates": [ -0.036866166134672, 51.454794973654742 ] } },
{ "type": "Feature", "properties": { "id": 326.000000, "osm_id": 2962499258.000000, "name": "West Meadow", "type": "locality", "z_order": 1.000000, "population": null }, "geometry": { "type": "Point", "coordinates": [ -0.215344544979274, 51.473095266672487 ] } },
{ "type": "Feature", "properties": { "id": 327.000000, "osm_id": 3003695516.000000, "name": "Semley Gate", "type": "locality", "z_order": 1.000000, "population": null }, "geometry": { "type": "Point", "coordinates": [ -0.028682411152175, 51.547085930203473 ] } },
{ "type": "Feature", "properties": { "id": 328.000000, "osm_id": 3064005585.000000, "name": "Globe Town", "type": "suburb", "z_order": 3.000000, "population": null }, "geometry": { "type": "Point", "coordinates": [ -0.045572868056155, 51.527412429988793 ] } },
{ "type": "Feature", "properties": { "id": 329.000000, "osm_id": 3135147021.000000, "name": "Devonshire Square", "type": "locality", "z_order": 1.000000, "population": null }, "geometry": { "type": "Point", "coordinates": [ -0.078023070916288, 51.516708236722025 ] } },
{ "type": "Feature", "properties": { "id": 330.000000, "osm_id": 3157726807.000000, "name": "Stratford Marsh", "type": "locality", "z_order": 1.000000, "population": null }, "geometry": { "type": "Point", "coordinates": [ -0.012186574249597, 51.537545899468483 ] } },
{ "type": "Feature", "properties": { "id": 331.000000, "osm_id": 3178572463.000000, "name": "Ashlone Wharf", "type": "locality", "z_order": 1.000000, "population": null }, "geometry": { "type": "Point", "coordinates": [ -0.223565683249916, 51.471491473319276 ] } },
{ "type": "Feature", "properties": { "id": 332.000000, "osm_id": 3191908604.000000, "name": "Forest Trading Estate", "type": "locality", "z_order": 1.000000, "population": null }, "geometry": { "type": "Point", "coordinates": [ -0.040931556811898, 51.572187383275264 ] } },
{ "type": "Feature", "properties": { "id": 333.000000, "osm_id": 3319761264.000000, "name": "Whipps Cross", "type": "neighbourhood", "z_order": 2.000000, "population": null }, "geometry": { "type": "Point", "coordinates": [ -0.000102300625315, 51.581542928321397 ] } },
{ "type": "Feature", "properties": { "id": 334.000000, "osm_id": 3471216193.000000, "name": "Cottenham Park", "type": "suburb", "z_order": 3.000000, "population": null }, "geometry": { "type": "Point", "coordinates": [ -0.23421891454538, 51.413671177390654 ] } },
{ "type": "Feature", "properties": { "id": 335.000000, "osm_id": 3581710094.000000, "name": "Bow Locks", "type": "locality", "z_order": 1.000000, "population": null }, "geometry": { "type": "Point", "coordinates": [ -0.008084051741321, 51.523120727925885 ] } },
{ "type": "Feature", "properties": { "id": 336.000000, "osm_id": 3584603472.000000, "name": "Leyton", "type": "suburb", "z_order": 3.000000, "population": null }, "geometry": { "type": "Point", "coordinates": [ -0.015681073501668, 51.569673399056427 ] } },
{ "type": "Feature", "properties": { "id": 337.000000, "osm_id": 3661486904.000000, "name": "East Village", "type": "neighbourhood", "z_order": 2.000000, "population": null }, "geometry": { "type": "Point", "coordinates": [ -0.009176968096114, 51.548107432743215 ] } },
{ "type": "Feature", "properties": { "id": 338.000000, "osm_id": 3756642912.000000, "name": "Hughesfield Estate", "type": "neighbourhood", "z_order": 2.000000, "population": null }, "geometry": { "type": "Point", "coordinates": [ -0.026278146045883, 51.482629597713327 ] } },
{ "type": "Feature", "properties": { "id": 339.000000, "osm_id": 3925845657.000000, "name": "Brompton", "type": "suburb", "z_order": 3.000000, "population": null }, "geometry": { "type": "Point", "coordinates": [ -0.178326037251509, 51.491822198561806 ] } },
{ "type": "Feature", "properties": { "id": 340.000000, "osm_id": 3930389397.000000, "name": "Shacklewell", "type": "suburb", "z_order": 3.000000, "population": null }, "geometry": { "type": "Point", "coordinates": [ -0.070158247349553, 51.552376084572408 ] } },
{ "type": "Feature", "properties": { "id": 341.000000, "osm_id": 3928669781.000000, "name": "Ball's Pond", "type": "suburb", "z_order": 3.000000, "population": null }, "geometry": { "type": "Point", "coordinates": [ -0.083056571410054, 51.548061919009001 ] } },
{ "type": "Feature", "properties": { "id": 342.000000, "osm_id": 3930403657.000000, "name": "South Tottenham", "type": "suburb", "z_order": 3.000000, "population": null }, "geometry": { "type": "Point", "coordinates": [ -0.073678059949202, 51.578249427107437 ] } },
{ "type": "Feature", "properties": { "id": 343.000000, "osm_id": 3928672471.000000, "name": "Kingsland", "type": "suburb", "z_order": 3.000000, "population": null }, "geometry": { "type": "Point", "coordinates": [ -0.08283780373722, 51.543887563590509 ] } },
{ "type": "Feature", "properties": { "id": 344.000000, "osm_id": 3928517083.000000, "name": "Shepherd's Hill", "type": "suburb", "z_order": 3.000000, "population": null }, "geometry": { "type": "Point", "coordinates": [ -0.1359006152436, 51.578091595870688 ] } },
{ "type": "Feature", "properties": { "id": 345.000000, "osm_id": 3928522466.000000, "name": "Crouch Hall Park", "type": "neighbourhood", "z_order": 2.000000, "population": null }, "geometry": { "type": "Point", "coordinates": [ -0.128066301804409, 51.579749368680325 ] } },
{ "type": "Feature", "properties": { "id": 346.000000, "osm_id": 3930386423.000000, "name": "South Hornsey", "type": "neighbourhood", "z_order": 2.000000, "population": null }, "geometry": { "type": "Point", "coordinates": [ -0.079161920100489, 51.555139095134507 ] } },
{ "type": "Feature", "properties": { "id": 347.000000, "osm_id": 3930426857.000000, "name": "Manor House", "type": "suburb", "z_order": 3.000000, "population": null }, "geometry": { "type": "Point", "coordinates": [ -0.090994736629568, 51.570703954051588 ] } },
{ "type": "Feature", "properties": { "id": 348.000000, "osm_id": 3933848027.000000, "name": "Brook Green", "type": "suburb", "z_order": 3.000000, "population": null }, "geometry": { "type": "Point", "coordinates": [ -0.219253361705199, 51.49602136441365 ] } },
{ "type": "Feature", "properties": { "id": 349.000000, "osm_id": 3933850644.000000, "name": "West Kensington", "type": "suburb", "z_order": 3.000000, "population": null }, "geometry": { "type": "Point", "coordinates": [ -0.20748600783989, 51.490992725423752 ] } },
{ "type": "Feature", "properties": { "id": 350.000000, "osm_id": 3933858663.000000, "name": "Earl's Court", "type": "suburb", "z_order": 3.000000, "population": null }, "geometry": { "type": "Point", "coordinates": [ -0.195229569924436, 51.491887325949449 ] } },
{ "type": "Feature", "properties": { "id": 351.000000, "osm_id": 3933853634.000000, "name": "West Kensington Park", "type": "suburb", "z_order": 3.000000, "population": null }, "geometry": { "type": "Point", "coordinates": [ -0.218869638177921, 51.499702863925535 ] } },
{ "type": "Feature", "properties": { "id": 352.000000, "osm_id": 3933865037.000000, "name": "Parson's Green", "type": "suburb", "z_order": 3.000000, "population": null }, "geometry": { "type": "Point", "coordinates": [ -0.197949748961321, 51.474388929608295 ] } },
{ "type": "Feature", "properties": { "id": 353.000000, "osm_id": 3933862427.000000, "name": "Walham Green", "type": "suburb", "z_order": 3.000000, "population": null }, "geometry": { "type": "Point", "coordinates": [ -0.195036702332402, 51.481343227033307 ] } },
{ "type": "Feature", "properties": { "id": 354.000000, "osm_id": 3934807457.000000, "name": "Copse Hill", "type": "suburb", "z_order": 3.000000, "population": null }, "geometry": { "type": "Point", "coordinates": [ -0.240302080773546, 51.417945445094944 ] } },
{ "type": "Feature", "properties": { "id": 355.000000, "osm_id": 3936965089.000000, "name": "King's Cross", "type": "suburb", "z_order": 3.000000, "population": null }, "geometry": { "type": "Point", "coordinates": [ -0.120625937814367, 51.532052819223708 ] } },
{ "type": "Feature", "properties": { "id": 356.000000, "osm_id": 3936960065.000000, "name": "Pentonville", "type": "suburb", "z_order": 3.000000, "population": null }, "geometry": { "type": "Point", "coordinates": [ -0.108423227898243, 51.531857856155881 ] } },
{ "type": "Feature", "properties": { "id": 357.000000, "osm_id": 3936983379.000000, "name": "West Kilburn", "type": "suburb", "z_order": 3.000000, "population": null }, "geometry": { "type": "Point", "coordinates": [ -0.201908270373082, 51.527934622556501 ] } },
{ "type": "Feature", "properties": { "id": 358.000000, "osm_id": 3936968792.000000, "name": "St. John's Wood", "type": "suburb", "z_order": 3.000000, "population": null }, "geometry": { "type": "Point", "coordinates": [ -0.174246732615018, 51.531763895021328 ] } },
{ "type": "Feature", "properties": { "id": 359.000000, "osm_id": 3937587633.000000, "name": "St Clement Danes", "type": "neighbourhood", "z_order": 2.000000, "population": null }, "geometry": { "type": "Point", "coordinates": [ -0.118564073452717, 51.513359498766135 ] } },
{ "type": "Feature", "properties": { "id": 360.000000, "osm_id": 3936973085.000000, "name": "Maida Hill", "type": "suburb", "z_order": 3.000000, "population": null }, "geometry": { "type": "Point", "coordinates": [ -0.194717016545383, 51.524098896026231 ] } },
{ "type": "Feature", "properties": { "id": 361.000000, "osm_id": 3937580110.000000, "name": "Soho", "type": "suburb", "z_order": 3.000000, "population": null }, "geometry": { "type": "Point", "coordinates": [ -0.131175401148568, 51.513162775498643 ] } },
{ "type": "Feature", "properties": { "id": 362.000000, "osm_id": 3938379795.000000, "name": "Summerstown", "type": "suburb", "z_order": 3.000000, "population": null }, "geometry": { "type": "Point", "coordinates": [ -0.183165748143892, 51.434337849312357 ] } },
{ "type": "Feature", "properties": { "id": 363.000000, "osm_id": 3937591763.000000, "name": "Temple", "type": "suburb", "z_order": 3.000000, "population": null }, "geometry": { "type": "Point", "coordinates": [ -0.110052669875188, 51.512830265399771 ] } },
{ "type": "Feature", "properties": { "id": 364.000000, "osm_id": 3938375236.000000, "name": "Earlsfield", "type": "suburb", "z_order": 3.000000, "population": null }, "geometry": { "type": "Point", "coordinates": [ -0.189394172754049, 51.446448190655502 ] } },
{ "type": "Feature", "properties": { "id": 365.000000, "osm_id": 3938354608.000000, "name": "Wimbledon Park", "type": "suburb", "z_order": 3.000000, "population": null }, "geometry": { "type": "Point", "coordinates": [ -0.218707532170526, 51.438187489801891 ] } },
{ "type": "Feature", "properties": { "id": 366.000000, "osm_id": 3938253583.000000, "name": "Castelnau", "type": "suburb", "z_order": 3.000000, "population": null }, "geometry": { "type": "Point", "coordinates": [ -0.237687681354714, 51.482695228015189 ] } },
{ "type": "Feature", "properties": { "id": 367.000000, "osm_id": 3938381837.000000, "name": "Upper Tooting", "type": "suburb", "z_order": 3.000000, "population": null }, "geometry": { "type": "Point", "coordinates": [ -0.162224652712268, 51.433841473006424 ] } },
{ "type": "Feature", "properties": { "id": 368.000000, "osm_id": 3938401583.000000, "name": "Manor Park", "type": "suburb", "z_order": 3.000000, "population": null }, "geometry": { "type": "Point", "coordinates": [ -0.135506917251547, 51.426949117845879 ] } },
{ "type": "Feature", "properties": { "id": 369.000000, "osm_id": 3938413889.000000, "name": "Streatham Vale", "type": "suburb", "z_order": 3.000000, "population": null }, "geometry": { "type": "Point", "coordinates": [ -0.131861208466205, 51.417134998877088 ] } },
{ "type": "Feature", "properties": { "id": 370.000000, "osm_id": 3939308798.000000, "name": "Ratcliffe", "type": "suburb", "z_order": 3.000000, "population": null }, "geometry": { "type": "Point", "coordinates": [ -0.044236457414172, 51.511539536130073 ] } },
{ "type": "Feature", "properties": { "id": 371.000000, "osm_id": 3939311899.000000, "name": "Shadwell", "type": "suburb", "z_order": 3.000000, "population": null }, "geometry": { "type": "Point", "coordinates": [ -0.05207797929009, 51.510603864278799 ] } },
{ "type": "Feature", "properties": { "id": 372.000000, "osm_id": 3939324659.000000, "name": "St.George in the East", "type": "suburb", "z_order": 3.000000, "population": null }, "geometry": { "type": "Point", "coordinates": [ -0.063512236323277, 51.51003498451044 ] } },
{ "type": "Feature", "properties": { "id": 373.000000, "osm_id": 3939328592.000000, "name": "Whitechapel", "type": "suburb", "z_order": 3.000000, "population": 14862.000000 }, "geometry": { "type": "Point", "coordinates": [ -0.0620807748993, 51.518622663406852 ] } },
{ "type": "Feature", "properties": { "id": 374.000000, "osm_id": 3939325033.000000, "name": "Spitalfields", "type": "suburb", "z_order": 3.000000, "population": null }, "geometry": { "type": "Point", "coordinates": [ -0.075170122533109, 51.519527322216362 ] } },
{ "type": "Feature", "properties": { "id": 375.000000, "osm_id": 3939373094.000000, "name": "Hackney Wick", "type": "suburb", "z_order": 3.000000, "population": null }, "geometry": { "type": "Point", "coordinates": [ -0.027703404861512, 51.543426139820809 ] } },
{ "type": "Feature", "properties": { "id": 376.000000, "osm_id": 3939327711.000000, "name": "Mile End New Town", "type": "locality", "z_order": 1.000000, "population": null }, "geometry": { "type": "Point", "coordinates": [ -0.067338323664899, 51.52062476479886 ] } },
{ "type": "Feature", "properties": { "id": 377.000000, "osm_id": 3939359610.000000, "name": "Old Ford", "type": "suburb", "z_order": 3.000000, "population": null }, "geometry": { "type": "Point", "coordinates": [ -0.026821544828636, 51.53411233665247 ] } },
{ "type": "Feature", "properties": { "id": 378.000000, "osm_id": 3939393416.000000, "name": "Clapton Park", "type": "suburb", "z_order": 3.000000, "population": null }, "geometry": { "type": "Point", "coordinates": [ -0.040408609872884, 51.55636067370304 ] } },